{
  "last_update_date": "2025-11-04",
  "data": {
    "203高地": {
      "locId": "L38396480",
      "locName": "203高地",
      "countryCode": "CN",
      "subnational1Code": "CN-21",
      "lat": 38.8290433,
      "lng": 121.1980701
    },
    "640台地 (Platform 640)": {
      "locId": "L25047407",
      "locName": "640台地 (Platform 640)",
      "countryCode": "CN",
      "subnational1Code": "CN-65",
      "lat": 47.3715161,
      "lng": 88.2454055,
      "latestObsDt": "2025-07-07 11:45",
      "numSpeciesAllTime": 74
    },
    "Antelope Valley": {
      "locId": "L5901169",
      "locName": "Antelope Valley",
      "countryCode": "CN",
      "subnational1Code": "CN-63",
      "lat": 35.0724067,
      "lng": 94.1909433,
      "latestObsDt": "2025-08-15 14:04",
      "numSpeciesAllTime": 34
    },
    "G107滹沱河大桥 (G107 Hutuo River Bridge)": {
      "locId": "L22609458",
      "locName": "G107滹沱河大桥 (G107 Hutuo River Bridge)",
      "countryCode": "CN",
      "subnational1Code": "CN-13",
      "lat": 38.1242735,
      "lng": 114.5398486,
      "latestObsDt": "2025-10-02 08:21",
      "numSpeciesAllTime": 151
    },
    "G217-胜利路湿地 (G217 & Shengli Rd Wetlands)": {
      "locId": "L6147484",
      "locName": "G217-胜利路湿地 (G217 & Shengli Rd Wetlands)",
      "countryCode": "CN",
      "subnational1Code": "CN-65",
      "lat": 45.557195,
      "lng": 84.954688,
      "latestObsDt": "2025-09-14 15:00",
      "numSpeciesAllTime": 100
    },
    "G234滹沱河大桥 (G234 Hutuo River Bridge)": {
      "locId": "L38471287",
      "locName": "G234滹沱河大桥 (G234 Hutuo River Bridge)",
      "countryCode": "CN",
      "subnational1Code": "CN-13",
      "lat": 38.27004,
      "lng": 114.351259,
      "latestObsDt": "2025-09-22 11:50",
      "numSpeciesAllTime": 89
    },
    "Memo Wetlands": {
      "locId": "L4774090",
      "locName": "Memo Wetlands",
      "countryCode": "CN",
      "subnational1Code": "CN-54",
      "lat": 28.599831,
      "lng": 86.670571,
      "latestObsDt": "2025-05-17 12:27",
      "numSpeciesAllTime": 34
    },
    "S9902滹沱河特大桥 (S9902 Hutuo River Grand Bridge)": {
      "locId": "L37785663",
      "locName": "S9902滹沱河特大桥 (S9902 Hutuo River Grand Bridge)",
      "countryCode": "CN",
      "subnational1Code": "CN-13",
      "lat": 38.1107098,
      "lng": 114.5852365,
      "latestObsDt": "2025-11-02 06:43",
      "numSpeciesAllTime": 87
    },
    "Shantou--Wetlands in eastern Chenghai, general area (汕头市澄海区东部湿地)": {
      "locId": "L5796293",
      "locName": "Shantou--Wetlands in eastern Chenghai, general area (汕头市澄海区东部湿地)",
      "countryCode": "CN",
      "subnational1Code": "CN-44",
      "lat": 23.46426,
      "lng": 116.8770647,
      "latestObsDt": "2025-10-07 16:40",
      "numSpeciesAllTime": 194
    },
    "Universidade de Macau 澳門大學": {
      "locId": "L35659792",
      "locName": "Universidade de Macau 澳門大學",
      "countryCode": "CN",
      "subnational1Code": "CN-44",
      "lat": 22.1290707,
      "lng": 113.5442313,
      "latestObsDt": "2025-08-19 14:55",
      "numSpeciesAllTime": 30
    },
    "㹧茶湖 (Angsang Lake)": {
      "locId": "L22357522",
      "locName": "㹧茶湖 (Angsang Lake)",
      "countryCode": "CN",
      "subnational1Code": "CN-33",
      "lat": 30.085368,
      "lng": 120.566715,
      "latestObsDt": "2025-11-01 17:30",
      "numSpeciesAllTime": 72
    },
    "一江山岛 (Yijiangshan Islands)": {
      "locId": "L37824675",
      "locName": "一江山岛 (Yijiangshan Islands)",
      "countryCode": "CN",
      "subnational1Code": "CN-33",
      "lat": 28.6046253,
      "lng": 121.8152092
    },
    "丁塘河湿地公园 (Dingtanghe Wetland Park)": {
      "locId": "L39904433",
      "locName": "丁塘河湿地公园 (Dingtanghe Wetland Park)",
      "countryCode": "CN",
      "subnational1Code": "CN-32",
      "lat": 31.7562328,
      "lng": 120.0337685
    },
    "丁字镇农田 (Dingzi Fields)": {
      "locId": "L26482633",
      "locName": "丁字镇农田 (Dingzi Fields)",
      "countryCode": "CN",
      "subnational1Code": "CN-43",
      "lat": 28.3575178,
      "lng": 112.9216119,
      "latestObsDt": "2025-09-26 08:30",
      "numSpeciesAllTime": 80
    },
    "丁香公园 (Dingxiang Park)": {
      "locId": "L36105174",
      "locName": "丁香公园 (Dingxiang Park)",
      "countryCode": "CN",
      "subnational1Code": "CN-23",
      "lat": 45.7425202,
      "lng": 126.5661162,
      "latestObsDt": "2024-11-11 07:10",
      "numSpeciesAllTime": 32
    },
    "丁香湖 (Dingxiang Lake)": {
      "locId": "L11914925",
      "locName": "丁香湖 (Dingxiang Lake)",
      "countryCode": "CN",
      "subnational1Code": "CN-21",
      "lat": 41.8561241,
      "lng": 123.336542,
      "latestObsDt": "2025-10-22 12:56",
      "numSpeciesAllTime": 67
    },
    "丁香生态公园 (Dingxiang Eco-Park)": {
      "locId": "L38018518",
      "locName": "丁香生态公园 (Dingxiang Eco-Park)",
      "countryCode": "CN",
      "subnational1Code": "CN-15",
      "lat": 38.8401141,
      "lng": 105.7413896
    },
    "七仙岭温泉国家森林公园 (Qixianling National Forest Park)": {
      "locId": "L19278859",
      "locName": "七仙岭温泉国家森林公园 (Qixianling National Forest Park)",
      "countryCode": "CN",
      "subnational1Code": "CN-46",
      "lat": 18.6936451,
      "lng": 109.709432,
      "latestObsDt": "2025-04-05 09:35",
      "numSpeciesAllTime": 26
    },
    "七农场水田 (Paddy Fields at No.7 Farm)": {
      "locId": "L5693979",
      "locName": "七农场水田 (Paddy Fields at No.7 Farm)",
      "countryCode": "CN",
      "subnational1Code": "CN-13",
      "lat": 39.2079372,
      "lng": 118.3024864,
      "latestObsDt": "2020-05-17 08:36",
      "numSpeciesAllTime": 182
    },
    "七大队 (No.7 Brigade)": {
      "locId": "L15497802",
      "locName": "七大队 (No.7 Brigade)",
      "countryCode": "CN",
      "subnational1Code": "CN-63",
      "lat": 37.4803593,
      "lng": 101.5356898,
      "latestObsDt": "2025-08-07 21:04",
      "numSpeciesAllTime": 70
    },
    "七星公园 (Qixing Park)": {
      "locId": "L36839808",
      "locName": "七星公园 (Qixing Park)",
      "countryCode": "CN",
      "subnational1Code": "CN-45",
      "lat": 25.2717189,
      "lng": 110.3120393,
      "latestObsDt": "2025-08-03 07:43",
      "numSpeciesAllTime": 16
    },
    "七星岗公园 (Qixinggang Park)": {
      "locId": "L46924598",
      "locName": "七星岗公园 (Qixinggang Park)",
      "countryCode": "CN",
      "subnational1Code": "CN-44",
      "lat": 22.995167,
      "lng": 113.394636,
      "latestObsDt": "2025-06-06 16:50",
      "numSpeciesAllTime": 8
    },
    "七星峰森林公园 (Qixingfeng Forest Park)": {
      "locId": "L25824042",
      "locName": "七星峰森林公园 (Qixingfeng Forest Park)",
      "countryCode": "CN",
      "subnational1Code": "CN-23",
      "lat": 46.7074995,
      "lng": 130.9582329,
      "latestObsDt": "2023-07-07 11:00",
      "numSpeciesAllTime": 1
    },
    "七星河自然保护区 (Qixing River NNR)": {
      "locId": "L5875534",
      "locName": "七星河自然保护区 (Qixing River NNR)",
      "countryCode": "CN",
      "subnational1Code": "CN-23",
      "lat": 46.712865,
      "lng": 132.134921,
      "latestObsDt": "2025-09-13 09:37",
      "numSpeciesAllTime": 116
    },
    "七星湖公园 (Qixinghu Park)": {
      "locId": "L17560456",
      "locName": "七星湖公园 (Qixinghu Park)",
      "countryCode": "CN",
      "subnational1Code": "CN-22",
      "lat": 43.5022139,
      "lng": 123.4717977,
      "latestObsDt": "2025-08-17 07:45",
      "numSpeciesAllTime": 103
    },
    "七星湖湿地公园 (Qixing Lakes Wetland Park)": {
      "locId": "L12171078",
      "locName": "七星湖湿地公园 (Qixing Lakes Wetland Park)",
      "countryCode": "CN",
      "subnational1Code": "CN-13",
      "lat": 42.43405,
      "lng": 117.247883,
      "latestObsDt": "2025-05-31 15:30",
      "numSpeciesAllTime": 91
    },
    "七星礁 (Qixingjiao)": {
      "locId": "L21981661",
      "locName": "七星礁 (Qixingjiao)",
      "countryCode": "CN",
      "subnational1Code": "CN-35",
      "lat": 24.5586349,
      "lng": 118.2842936,
      "latestObsDt": "2025-09-27 16:25",
      "numSpeciesAllTime": 148
    },
    "七格--猪头角坝 (Qige--Zhutoujiao Embankment)": {
      "locId": "L15911007",
      "locName": "七格--猪头角坝 (Qige--Zhutoujiao Embankment)",
      "countryCode": "CN",
      "subnational1Code": "CN-33",
      "lat": 30.2858382,
      "lng": 120.3145516,
      "latestObsDt": "2022-03-22 00:00",
      "numSpeciesAllTime": 29
    },
    "七桥瓮生态湿地公园 (Qiqiaoweng Wetland Park)": {
      "locId": "L39857371",
      "locName": "七桥瓮生态湿地公园 (Qiqiaoweng Wetland Park)",
      "countryCode": "CN",
      "subnational1Code": "CN-32",
      "lat": 32.0076326,
      "lng": 118.8345216
    },
    "七贤岭森林公园 (Qixianling Forest Park)": {
      "locId": "L38396297",
      "locName": "七贤岭森林公园 (Qixianling Forest Park)",
      "countryCode": "CN",
      "subnational1Code": "CN-21",
      "lat": 38.8455933,
      "lng": 121.5232413,
      "latestObsDt": "2025-08-01 10:00",
      "numSpeciesAllTime": 21
    },
    "七都岛 (Qidu Island [General Area])": {
      "locId": "L3996108",
      "locName": "七都岛 (Qidu Island [General Area])",
      "countryCode": "CN",
      "subnational1Code": "CN-33",
      "lat": 27.9820733,
      "lng": 120.7871246,
      "latestObsDt": "2025-10-18 00:00",
      "numSpeciesAllTime": 135
    },
    "七里坪 (Qiliping)": {
      "locId": "L17973972",
      "locName": "七里坪 (Qiliping)",
      "countryCode": "CN",
      "subnational1Code": "CN-42",
      "lat": 31.4629363,
      "lng": 114.6549096,
      "latestObsDt": "2025-06-02 07:01",
      "numSpeciesAllTime": 75
    },
    "七里海湿地 (Qilihai Wetlands)": {
      "locId": "L30315011",
      "locName": "七里海湿地 (Qilihai Wetlands)",
      "countryCode": "CN",
      "subnational1Code": "CN-12",
      "lat": 39.2958058,
      "lng": 117.5525906,
      "latestObsDt": "2025-03-22 12:30",
      "numSpeciesAllTime": 113
    },
    "七里海湿地--东海 (Qilihai Wetlands East)": {
      "locId": "L32413949",
      "locName": "七里海湿地--东海 (Qilihai Wetlands East)",
      "countryCode": "CN",
      "subnational1Code": "CN-12",
      "lat": 39.2985556,
      "lng": 117.5906111,
      "latestObsDt": "2025-04-02 10:02",
      "numSpeciesAllTime": 208
    },
    "七里海湿地--潮白新河七里海段 (Qilihai Wetlands--New Chaobai River)": {
      "locId": "L32414061",
      "locName": "七里海湿地--潮白新河七里海段 (Qilihai Wetlands--New Chaobai River)",
      "countryCode": "CN",
      "subnational1Code": "CN-12",
      "lat": 39.2822451,
      "lng": 117.5670222,
      "latestObsDt": "2022-01-27 09:10",
      "numSpeciesAllTime": 124
    },
    "七里海湿地--西海 (Qilihai Wetlands West)": {
      "locId": "L32413950",
      "locName": "七里海湿地--西海 (Qilihai Wetlands West)",
      "countryCode": "CN",
      "subnational1Code": "CN-12",
      "lat": 39.2981864,
      "lng": 117.5045749,
      "latestObsDt": "2022-01-27 09:10",
      "numSpeciesAllTime": 190
    },
    "七里海潟湖 (Qilihai Lagoon Wetlands)": {
      "locId": "L25346246",
      "locName": "七里海潟湖 (Qilihai Lagoon Wetlands)",
      "countryCode": "CN",
      "subnational1Code": "CN-13",
      "lat": 39.5906175,
      "lng": 119.2724775,
      "latestObsDt": "2025-05-14 11:09",
      "numSpeciesAllTime": 82
    },
    "万丰公园 (Wanfeng Park)": {
      "locId": "L11383271",
      "locName": "万丰公园 (Wanfeng Park)",
      "countryCode": "CN",
      "subnational1Code": "CN-11",
      "lat": 39.8828658,
      "lng": 116.2912418,
      "latestObsDt": "2025-05-24 09:24",
      "numSpeciesAllTime": 40
    },
    "万亩鱼塘 (The Wanmu Fish Ponds)": {
      "locId": "L32227907",
      "locName": "万亩鱼塘 (The Wanmu Fish Ponds)",
      "countryCode": "CN",
      "subnational1Code": "CN-12",
      "lat": 38.7887624,
      "lng": 117.4247183,
      "latestObsDt": "2025-04-19 15:06",
      "numSpeciesAllTime": 172
    },
    "万宁东澳田野 (Wanning Dong'ao Countryside)": {
      "locId": "L38890144",
      "locName": "万宁东澳田野 (Wanning Dong'ao Countryside)",
      "countryCode": "CN",
      "subnational1Code": "CN-46",
      "lat": 18.7091549,
      "lng": 110.3952884,
      "latestObsDt": "2025-08-12 19:36",
      "numSpeciesAllTime": 45
    },
    "万宝海滩 (Wanbao Coast)": {
      "locId": "L26002079",
      "locName": "万宝海滩 (Wanbao Coast)",
      "countryCode": "CN",
      "subnational1Code": "CN-37",
      "lat": 35.5816762,
      "lng": 119.6633044,
      "latestObsDt": "2025-02-17 09:59",
      "numSpeciesAllTime": 78
    },
    "万尾金滩 (Wanwei Golden Beach)": {
      "locId": "L11449944",
      "locName": "万尾金滩 (Wanwei Golden Beach)",
      "countryCode": "CN",
      "subnational1Code": "CN-45",
      "lat": 21.5244597,
      "lng": 108.1672899,
      "latestObsDt": "2025-10-08 12:00",
      "numSpeciesAllTime": 88
    },
    "万平口海滨 (Wanpingkou Coast)": {
      "locId": "L26347978",
      "locName": "万平口海滨 (Wanpingkou Coast)",
      "countryCode": "CN",
      "subnational1Code": "CN-37",
      "lat": 35.4313319,
      "lng": 119.5696565,
      "latestObsDt": "2025-09-10 15:41",
      "numSpeciesAllTime": 130
    },
    "万平口澙湖 (Wanpingkou Lagoon)": {
      "locId": "L27929153",
      "locName": "万平口澙湖 (Wanpingkou Lagoon)",
      "countryCode": "CN",
      "subnational1Code": "CN-37",
      "lat": 35.4227772,
      "lng": 119.5578118,
      "latestObsDt": "2025-03-21 15:59",
      "numSpeciesAllTime": 51
    },
    "万木林省级自然保护区 (Wanmulin PNR)": {
      "locId": "L23976482",
      "locName": "万木林省级自然保护区 (Wanmulin PNR)",
      "countryCode": "CN",
      "subnational1Code": "CN-35",
      "lat": 27.0445342,
      "lng": 118.1579274,
      "latestObsDt": "2025-07-16 07:00",
      "numSpeciesAllTime": 31
    },
    "万松山公园 (Wansongshan Park)": {
      "locId": "L22314785",
      "locName": "万松山公园 (Wansongshan Park)",
      "countryCode": "CN",
      "subnational1Code": "CN-33",
      "lat": 27.7899986,
      "lng": 120.6456936,
      "latestObsDt": "2025-06-26 08:45",
      "numSpeciesAllTime": 34
    },
    "万柳塘公园 (Wanliutang Park)": {
      "locId": "L38650400",
      "locName": "万柳塘公园 (Wanliutang Park)",
      "countryCode": "CN",
      "subnational1Code": "CN-21",
      "lat": 41.779704,
      "lng": 123.4650576
    },
    "万泉公园 (Wanquan Park)": {
      "locId": "L12847179",
      "locName": "万泉公园 (Wanquan Park)",
      "countryCode": "CN",
      "subnational1Code": "CN-21",
      "lat": 41.788601,
      "lng": 123.472569,
      "latestObsDt": "2025-07-18 11:01",
      "numSpeciesAllTime": 57
    },
    "万洋洲湿地公园 (Wanyangzhou Wetland Park)": {
      "locId": "L39581516",
      "locName": "万洋洲湿地公园 (Wanyangzhou Wetland Park)",
      "countryCode": "CN",
      "subnational1Code": "CN-42",
      "lat": 31.7292316,
      "lng": 112.2620084,
      "latestObsDt": "2025-10-18 11:00",
      "numSpeciesAllTime": 38
    },
    "万盘尖 (Wanpanjian Peak)": {
      "locId": "L12549728",
      "locName": "万盘尖 (Wanpanjian Peak)",
      "countryCode": "CN",
      "subnational1Code": "CN-33",
      "lat": 27.7192982,
      "lng": 120.5094939,
      "latestObsDt": "2025-10-03 08:35",
      "numSpeciesAllTime": 33
    },
    "万绿园 (Evergreen Garden)": {
      "locId": "L5844250",
      "locName": "万绿园 (Evergreen Garden)",
      "countryCode": "CN",
      "subnational1Code": "CN-46",
      "lat": 20.0347064,
      "lng": 110.3135834,
      "latestObsDt": "2025-04-06 15:51",
      "numSpeciesAllTime": 63
    },
    "万象山公园 (Wanxiangshan Park)": {
      "locId": "L11818093",
      "locName": "万象山公园 (Wanxiangshan Park)",
      "countryCode": "CN",
      "subnational1Code": "CN-33",
      "lat": 28.4477222,
      "lng": 119.9029688,
      "latestObsDt": "2025-10-05 00:00",
      "numSpeciesAllTime": 13
    },
    "三一八公园 (Mar 18th Park)": {
      "locId": "L38341059",
      "locName": "三一八公园 (Mar 18th Park)",
      "countryCode": "CN",
      "subnational1Code": "CN-21",
      "lat": 41.9999326,
      "lng": 121.6426107
    },
    "三丫港 (Sanya Bay)": {
      "locId": "L4476126",
      "locName": "三丫港 (Sanya Bay)",
      "countryCode": "CN",
      "subnational1Code": "CN-44",
      "lat": 21.7957655,
      "lng": 112.1987772,
      "latestObsDt": "2016-10-21 10:34",
      "numSpeciesAllTime": 46
    },
    "三亚情人湾 (Lover’s Bay, Sanya)": {
      "locId": "L22483818",
      "locName": "三亚情人湾 (Lover’s Bay, Sanya)",
      "countryCode": "CN",
      "subnational1Code": "CN-46",
      "lat": 18.212837,
      "lng": 109.489944,
      "latestObsDt": "2025-02-08 07:42",
      "numSpeciesAllTime": 54
    },
    "三亚红树林公园 (Sanya Mangrove Park)": {
      "locId": "L22485742",
      "locName": "三亚红树林公园 (Sanya Mangrove Park)",
      "countryCode": "CN",
      "subnational1Code": "CN-46",
      "lat": 18.2564145,
      "lng": 109.5075177,
      "latestObsDt": "2025-05-03 09:54",
      "numSpeciesAllTime": 50
    },
    "三亚西岛 (West Island, Sanya)": {
      "locId": "L37636086",
      "locName": "三亚西岛 (West Island, Sanya)",
      "countryCode": "CN",
      "subnational1Code": "CN-46",
      "lat": 18.2346776,
      "lng": 109.3749853,
      "latestObsDt": "2025-03-19 12:35",
      "numSpeciesAllTime": 20
    },
    "三凌集团西边湿地": {
      "locId": "L39817309",
      "locName": "三凌集团西边湿地",
      "countryCode": "CN",
      "subnational1Code": "CN-44",
      "lat": 23.2512257,
      "lng": 116.7006401
    },
    "三利水库 (Sanli Reservoir)": {
      "locId": "L38426036",
      "locName": "三利水库 (Sanli Reservoir)",
      "countryCode": "CN",
      "subnational1Code": "CN-45",
      "lat": 23.4246666,
      "lng": 109.2428583
    },
    "三台子湿地 (Santaizi Wetlands)": {
      "locId": "L38395982",
      "locName": "三台子湿地 (Santaizi Wetlands)",
      "countryCode": "CN",
      "subnational1Code": "CN-21",
      "lat": 39.601052,
      "lng": 121.5698216,
      "latestObsDt": "2011-02-07 00:00",
      "numSpeciesAllTime": 22
    },
    "三台山森林公园 (Santaishan Forest Park)": {
      "locId": "L39840812",
      "locName": "三台山森林公园 (Santaishan Forest Park)",
      "countryCode": "CN",
      "subnational1Code": "CN-32",
      "lat": 34.0427066,
      "lng": 118.318663
    },
    "三圣花乡梅香湖 (Sansheng Huaxiang--Meixiang Lake)": {
      "locId": "L1616787",
      "locName": "三圣花乡梅香湖 (Sansheng Huaxiang--Meixiang Lake)",
      "countryCode": "CN",
      "subnational1Code": "CN-51",
      "lat": 30.5865432,
      "lng": 104.1370054,
      "latestObsDt": "2021-03-13 02:17",
      "numSpeciesAllTime": 38
    },
    "三圣花乡荷塘月色 (Sansheng Huaxiang--Lotus Pools)": {
      "locId": "L20112528",
      "locName": "三圣花乡荷塘月色 (Sansheng Huaxiang--Lotus Pools)",
      "countryCode": "CN",
      "subnational1Code": "CN-51",
      "lat": 30.5681733,
      "lng": 104.1567743,
      "latestObsDt": "2025-09-12 11:20",
      "numSpeciesAllTime": 64
    },
    "三垟湿地公园 (Sanyang Wetland Park)": {
      "locId": "L10840562",
      "locName": "三垟湿地公园 (Sanyang Wetland Park)",
      "countryCode": "CN",
      "subnational1Code": "CN-33",
      "lat": 27.9609799,
      "lng": 120.713596,
      "latestObsDt": "2025-09-21 00:00",
      "numSpeciesAllTime": 131
    },
    "三墩村湿地 (Sandun Wetlands)": {
      "locId": "L22249871",
      "locName": "三墩村湿地 (Sandun Wetlands)",
      "countryCode": "CN",
      "subnational1Code": "CN-44",
      "lat": 21.4418673,
      "lng": 109.9608557,
      "latestObsDt": "2025-01-31 16:59",
      "numSpeciesAllTime": 89
    },
    "三娘湾 (San Niang Bay)": {
      "locId": "L10347400",
      "locName": "三娘湾 (San Niang Bay)",
      "countryCode": "CN",
      "subnational1Code": "CN-45",
      "lat": 21.6225587,
      "lng": 108.7768806,
      "latestObsDt": "2025-10-04 06:56",
      "numSpeciesAllTime": 96
    },
    "三家村水库 (Sanjiacun Reservoir)": {
      "locId": "L8418572",
      "locName": "三家村水库 (Sanjiacun Reservoir)",
      "countryCode": "CN",
      "subnational1Code": "CN-53",
      "lat": 25.045095,
      "lng": 102.592921,
      "latestObsDt": "2025-09-19 19:04",
      "numSpeciesAllTime": 168
    },
    "三峡人家风景区 (Three-Gorges Village Scenic Area)": {
      "locId": "L10172976",
      "locName": "三峡人家风景区 (Three-Gorges Village Scenic Area)",
      "countryCode": "CN",
      "subnational1Code": "CN-42",
      "lat": 30.7827726,
      "lng": 111.154068,
      "latestObsDt": "2025-10-09 15:47",
      "numSpeciesAllTime": 94
    },
    "三明罗卜岩省级自然保护区 (Sanming Luoboyan PNR)": {
      "locId": "L9929580",
      "locName": "三明罗卜岩省级自然保护区 (Sanming Luoboyan PNR)",
      "countryCode": "CN",
      "subnational1Code": "CN-35",
      "lat": 26.4384368,
      "lng": 117.5877366,
      "latestObsDt": "2025-06-21 08:00",
      "numSpeciesAllTime": 129
    },
    "三星堆博物馆及鸭子河 (Sanxingdui Museum & Duck River)": {
      "locId": "L9217376",
      "locName": "三星堆博物馆及鸭子河 (Sanxingdui Museum & Duck River)",
      "countryCode": "CN",
      "subnational1Code": "CN-51",
      "lat": 31.0030386,
      "lng": 104.2181559,
      "latestObsDt": "2025-09-01 11:33",
      "numSpeciesAllTime": 120
    },
    "三星湖 (Sanxing Lake)": {
      "locId": "L38190436",
      "locName": "三星湖 (Sanxing Lake)",
      "countryCode": "CN",
      "subnational1Code": "CN-51",
      "lat": 30.9236494,
      "lng": 104.30499,
      "latestObsDt": "2025-10-04 14:57",
      "numSpeciesAllTime": 43
    },
    "三桥湿地公园 (Sanqiao Wetland Park)": {
      "locId": "L39857412",
      "locName": "三桥湿地公园 (Sanqiao Wetland Park)",
      "countryCode": "CN",
      "subnational1Code": "CN-32",
      "lat": 31.9587346,
      "lng": 118.6507988,
      "latestObsDt": "2025-05-02 11:59",
      "numSpeciesAllTime": 3
    },
    "三水森林公园 (Sanshui Forest Park)": {
      "locId": "L39656169",
      "locName": "三水森林公园 (Sanshui Forest Park)",
      "countryCode": "CN",
      "subnational1Code": "CN-44",
      "lat": 23.1856408,
      "lng": 112.8706904,
      "latestObsDt": "2025-03-08 09:27",
      "numSpeciesAllTime": 42
    },
    "三汊河国家湿地公园 (Sanchahe National Wetland Park)": {
      "locId": "L28148840",
      "locName": "三汊河国家湿地公园 (Sanchahe National Wetland Park)",
      "countryCode": "CN",
      "subnational1Code": "CN-34",
      "lat": 33.047983,
      "lng": 117.3230595,
      "latestObsDt": "2025-01-27 08:21",
      "numSpeciesAllTime": 56
    },
    "三江口公园 (Sanjiangkou Park)": {
      "locId": "L27367823",
      "locName": "三江口公园 (Sanjiangkou Park)",
      "countryCode": "CN",
      "subnational1Code": "CN-33",
      "lat": 28.6918742,
      "lng": 121.3315221,
      "latestObsDt": "2024-11-23 00:00",
      "numSpeciesAllTime": 9
    },
    "三河国际荷花博览园及巢湖滩涂 (Sanhe Lotus Expo Park & Lakefront Tidal Flats)": {
      "locId": "L20908863",
      "locName": "三河国际荷花博览园及巢湖滩涂 (Sanhe Lotus Expo Park & Lakefront Tidal Flats)",
      "countryCode": "CN",
      "subnational1Code": "CN-34",
      "lat": 31.578585,
      "lng": 117.300825,
      "latestObsDt": "2025-04-19 14:40",
      "numSpeciesAllTime": 102
    },
    "三清山风景区 (Sanqing Mountain Scenic Area)": {
      "locId": "L9399053",
      "locName": "三清山风景区 (Sanqing Mountain Scenic Area)",
      "countryCode": "CN",
      "subnational1Code": "CN-36",
      "lat": 28.9030496,
      "lng": 118.067448,
      "latestObsDt": "2025-11-01 07:19",
      "numSpeciesAllTime": 77
    },
    "三渡溪水库 (Sanduxi Reservoir)": {
      "locId": "L22315373",
      "locName": "三渡溪水库 (Sanduxi Reservoir)",
      "countryCode": "CN",
      "subnational1Code": "CN-33",
      "lat": 29.0271793,
      "lng": 120.0690054,
      "latestObsDt": "2025-01-04 16:03",
      "numSpeciesAllTime": 33
    },
    "三潭峡 (Santanxia)": {
      "locId": "L38018739",
      "locName": "三潭峡 (Santanxia)",
      "countryCode": "CN",
      "subnational1Code": "CN-15",
      "lat": 47.2934875,
      "lng": 120.4558129
    },
    "三甲港 (Sanjia Habour)": {
      "locId": "L3839594",
      "locName": "三甲港 (Sanjia Habour)",
      "countryCode": "CN",
      "subnational1Code": "CN-31",
      "lat": 31.2092412,
      "lng": 121.7818809,
      "latestObsDt": "2025-09-22 07:06",
      "numSpeciesAllTime": 153
    },
    "三角洲水库 (Delta Reservoir)": {
      "locId": "L21266258",
      "locName": "三角洲水库 (Delta Reservoir)",
      "countryCode": "CN",
      "subnational1Code": "CN-21",
      "lat": 40.861573,
      "lng": 121.9352289,
      "latestObsDt": "2022-10-11 14:30",
      "numSpeciesAllTime": 8
    },
    "三角洲生态公园 (Delta Eco-Park)": {
      "locId": "L38650629",
      "locName": "三角洲生态公园 (Delta Eco-Park)",
      "countryCode": "CN",
      "subnational1Code": "CN-34",
      "lat": 33.6627928,
      "lng": 116.9611163
    },
    "三道桥 (Sandaoqiao)": {
      "locId": "L5806609",
      "locName": "三道桥 (Sandaoqiao)",
      "countryCode": "CN",
      "subnational1Code": "CN-51",
      "lat": 30.9683583,
      "lng": 103.1104717,
      "latestObsDt": "2021-06-05 08:15",
      "numSpeciesAllTime": 160
    },
    "三道海子 (Lake Sandaohaizi)": {
      "locId": "L37993113",
      "locName": "三道海子 (Lake Sandaohaizi)",
      "countryCode": "CN",
      "subnational1Code": "CN-65",
      "lat": 46.7731197,
      "lng": 90.8939245
    },
    "三门农博园 (Sanmen Agri-Expo Garden)": {
      "locId": "L46942689",
      "locName": "三门农博园 (Sanmen Agri-Expo Garden)",
      "countryCode": "CN",
      "subnational1Code": "CN-33",
      "lat": 29.1021487,
      "lng": 121.5986386,
      "latestObsDt": "2025-05-09 00:00",
      "numSpeciesAllTime": 15
    },
    "三门峡南湖 (South Lake, Sanmenxia)": {
      "locId": "L37918524",
      "locName": "三门峡南湖 (South Lake, Sanmenxia)",
      "countryCode": "CN",
      "subnational1Code": "CN-41",
      "lat": 34.7785357,
      "lng": 111.1479887,
      "latestObsDt": "2025-11-01 11:54",
      "numSpeciesAllTime": 38
    },
    "三门峡黄河公园 (Yellow River Park, Sanmenxia)": {
      "locId": "L1509364",
      "locName": "三门峡黄河公园 (Yellow River Park, Sanmenxia)",
      "countryCode": "CN",
      "subnational1Code": "CN-41",
      "lat": 34.7946903,
      "lng": 111.2094163,
      "latestObsDt": "2012-01-25 15:00",
      "numSpeciesAllTime": 21
    },
    "三门江森林公园 (Sanmenjiang Forest Park)": {
      "locId": "L38426332",
      "locName": "三门江森林公园 (Sanmenjiang Forest Park)",
      "countryCode": "CN",
      "subnational1Code": "CN-45",
      "lat": 24.3531646,
      "lng": 109.4904369
    },
    "三阳镇 (Sanyang Town)": {
      "locId": "L8529437",
      "locName": "三阳镇 (Sanyang Town)",
      "countryCode": "CN",
      "subnational1Code": "CN-42",
      "lat": 31.303407,
      "lng": 113.193515,
      "latestObsDt": "2025-06-15 11:00",
      "numSpeciesAllTime": 109
    },
    "三雅村 (Sanya Village)": {
      "locId": "L32240035",
      "locName": "三雅村 (Sanya Village)",
      "countryCode": "CN",
      "subnational1Code": "CN-46",
      "lat": 19.2649181,
      "lng": 109.6633353,
      "latestObsDt": "2025-09-04 17:17",
      "numSpeciesAllTime": 111
    },
    "上中坝湿地公园 (Shangzhongba Wetland Park)": {
      "locId": "L38175310",
      "locName": "上中坝湿地公园 (Shangzhongba Wetland Park)",
      "countryCode": "CN",
      "subnational1Code": "CN-51",
      "lat": 30.796622,
      "lng": 106.1065491
    },
    "上前海 (Shangqianhai)": {
      "locId": "L39820404",
      "locName": "上前海 (Shangqianhai)",
      "countryCode": "CN",
      "subnational1Code": "CN-44",
      "lat": 21.5140879,
      "lng": 111.2323843
    },
    "上华美丽田园 (Shanghua Farmlands)": {
      "locId": "L39964079",
      "locName": "上华美丽田园 (Shanghua Farmlands)",
      "countryCode": "CN",
      "subnational1Code": "CN-44",
      "lat": 22.9726438,
      "lng": 113.0755413
    },
    "上四寨沟 (Upper-Four-Village Valley)": {
      "locId": "L4683648",
      "locName": "上四寨沟 (Upper-Four-Village Valley)",
      "countryCode": "CN",
      "subnational1Code": "CN-51",
      "lat": 33.31421,
      "lng": 103.76783,
      "latestObsDt": "2025-10-18 15:25",
      "numSpeciesAllTime": 117
    },
    "上坝河国家森林公园 (Shangbahe National Forest Park)": {
      "locId": "L7210684",
      "locName": "上坝河国家森林公园 (Shangbahe National Forest Park)",
      "countryCode": "CN",
      "subnational1Code": "CN-61",
      "lat": 33.3610303,
      "lng": 108.4524008,
      "latestObsDt": "2016-07-03 14:06",
      "numSpeciesAllTime": 53
    },
    "上坪田村 (Shangpingtian)": {
      "locId": "L16062944",
      "locName": "上坪田村 (Shangpingtian)",
      "countryCode": "CN",
      "subnational1Code": "CN-33",
      "lat": 29.2638917,
      "lng": 118.8046629,
      "latestObsDt": "2024-07-31 00:00",
      "numSpeciesAllTime": 8
    },
    "上大陈岛 (Upper Dachen Island)": {
      "locId": "L19267924",
      "locName": "上大陈岛 (Upper Dachen Island)",
      "countryCode": "CN",
      "subnational1Code": "CN-33",
      "lat": 28.4884317,
      "lng": 121.8966963,
      "latestObsDt": "2022-05-26 05:26",
      "numSpeciesAllTime": 51
    },
    "上官庄 (Shangguanzhuang)": {
      "locId": "L23956557",
      "locName": "上官庄 (Shangguanzhuang)",
      "countryCode": "CN",
      "subnational1Code": "CN-37",
      "lat": 35.4480417,
      "lng": 118.87443,
      "latestObsDt": "2024-09-16 10:00",
      "numSpeciesAllTime": 56
    },
    "上实农业 (ShangShi Farm)": {
      "locId": "L40003552",
      "locName": "上实农业 (ShangShi Farm)",
      "countryCode": "CN",
      "subnational1Code": "CN-31",
      "lat": 31.483348,
      "lng": 121.9300715,
      "latestObsDt": "2025-10-25 14:02",
      "numSpeciesAllTime": 92
    },
    "上寺水库 (Shangsi Reservoir)": {
      "locId": "L47110939",
      "locName": "上寺水库 (Shangsi Reservoir)",
      "countryCode": "CN",
      "subnational1Code": "CN-21",
      "lat": 41.938969,
      "lng": 123.8032,
      "latestObsDt": "2025-06-08 18:28",
      "numSpeciesAllTime": 21
    },
    "上山头 (Shangshantou Mountain)": {
      "locId": "L44661975",
      "locName": "上山头 (Shangshantou Mountain)",
      "countryCode": "CN",
      "subnational1Code": "CN-33",
      "lat": 27.7758789,
      "lng": 119.6374366,
      "latestObsDt": "2025-05-11 05:50",
      "numSpeciesAllTime": 54
    },
    "上方山国家森林公园 (Shangfangshan National Forest Park)": {
      "locId": "L7283433",
      "locName": "上方山国家森林公园 (Shangfangshan National Forest Park)",
      "countryCode": "CN",
      "subnational1Code": "CN-32",
      "lat": 31.2444464,
      "lng": 120.5806208,
      "latestObsDt": "2025-09-20 07:47",
      "numSpeciesAllTime": 93
    },
    "上李水库 (Shangli Reservoir)": {
      "locId": "L39796081",
      "locName": "上李水库 (Shangli Reservoir)",
      "countryCode": "CN",
      "subnational1Code": "CN-35",
      "lat": 24.4448228,
      "lng": 118.1274611,
      "latestObsDt": "2025-10-12 08:18",
      "numSpeciesAllTime": 63
    },
    "上海世博公园 (Shanghai Expo Park)": {
      "locId": "L8337265",
      "locName": "上海世博公园 (Shanghai Expo Park)",
      "countryCode": "CN",
      "subnational1Code": "CN-31",
      "lat": 31.187593,
      "lng": 121.48738,
      "latestObsDt": "2025-09-27 10:15",
      "numSpeciesAllTime": 65
    },
    "上海中学 (Shanghai High School)": {
      "locId": "L5818203",
      "locName": "上海中学 (Shanghai High School)",
      "countryCode": "CN",
      "subnational1Code": "CN-31",
      "lat": 31.1411227,
      "lng": 121.433528,
      "latestObsDt": "2025-07-27 14:20",
      "numSpeciesAllTime": 99
    },
    "上海交通大学 (Shanghai Jiao Tong University)": {
      "locId": "L5095384",
      "locName": "上海交通大学 (Shanghai Jiao Tong University)",
      "countryCode": "CN",
      "subnational1Code": "CN-31",
      "lat": 31.0277097,
      "lng": 121.4367878,
      "latestObsDt": "2025-10-03 16:17",
      "numSpeciesAllTime": 95
    },
    "上海动物园 (Shanghai Zoo)": {
      "locId": "L1800516",
      "locName": "上海动物园 (Shanghai Zoo)",
      "countryCode": "CN",
      "subnational1Code": "CN-31",
      "lat": 31.1925692,
      "lng": 121.3647346,
      "latestObsDt": "2025-09-07 16:30",
      "numSpeciesAllTime": 112
    },
    "上海外国语大学松江校区 (Shanghai International Studies University - Songjiang Campus)": {
      "locId": "L6596329",
      "locName": "上海外国语大学松江校区 (Shanghai International Studies University - Songjiang Campus)",
      "countryCode": "CN",
      "subnational1Code": "CN-31",
      "lat": 31.0467013,
      "lng": 121.224521,
      "latestObsDt": "2024-11-05 08:00",
      "numSpeciesAllTime": 70
    },
    "上海外滩 (The Bund of Shanghai)": {
      "locId": "L3639862",
      "locName": "上海外滩 (The Bund of Shanghai)",
      "countryCode": "CN",
      "subnational1Code": "CN-31",
      "lat": 31.2393306,
      "lng": 121.4904382,
      "latestObsDt": "2025-10-28 09:15",
      "numSpeciesAllTime": 55
    },
    "上海师范大学奉贤校区 (Shanghai Normal University - Fengxian Campus)": {
      "locId": "L39480626",
      "locName": "上海师范大学奉贤校区 (Shanghai Normal University - Fengxian Campus)",
      "countryCode": "CN",
      "subnational1Code": "CN-31",
      "lat": 30.8352473,
      "lng": 121.5199256,
      "latestObsDt": "2025-02-28 11:00",
      "numSpeciesAllTime": 28
    },
    "上海植物园 (Shanghai Botanical Garden)": {
      "locId": "L1122868",
      "locName": "上海植物园 (Shanghai Botanical Garden)",
      "countryCode": "CN",
      "subnational1Code": "CN-31",
      "lat": 31.1469606,
      "lng": 121.4440785,
      "latestObsDt": "2025-11-01 11:11",
      "numSpeciesAllTime": 150
    },
    "上海汽车博览公园 (Shanghai Auto-Expo Park)": {
      "locId": "L6068729",
      "locName": "上海汽车博览公园 (Shanghai Auto-Expo Park)",
      "countryCode": "CN",
      "subnational1Code": "CN-31",
      "lat": 31.2778907,
      "lng": 121.1755085,
      "latestObsDt": "2025-10-19 13:00",
      "numSpeciesAllTime": 37
    },
    "上海浦东国际机场 (Shanghai Pudong International Airport)": {
      "locId": "L6124266",
      "locName": "上海浦东国际机场 (Shanghai Pudong International Airport)",
      "countryCode": "CN",
      "subnational1Code": "CN-31",
      "lat": 31.144344,
      "lng": 121.8082731,
      "latestObsDt": "2025-10-29 16:58",
      "numSpeciesAllTime": 97
    },
    "上海海事大学 (Shanghai Maritime University)": {
      "locId": "L38722480",
      "locName": "上海海事大学 (Shanghai Maritime University)",
      "countryCode": "CN",
      "subnational1Code": "CN-31",
      "lat": 30.8742945,
      "lng": 121.9051074,
      "latestObsDt": "2024-09-21 14:13",
      "numSpeciesAllTime": 8
    },
    "上海海洋大学 (Shanghai Ocean University)": {
      "locId": "L28759367",
      "locName": "上海海洋大学 (Shanghai Ocean University)",
      "countryCode": "CN",
      "subnational1Code": "CN-31",
      "lat": 30.8851909,
      "lng": 121.8946028,
      "latestObsDt": "2025-06-03 16:07",
      "numSpeciesAllTime": 106
    },
    "上海海湾国家森林公园 (Shanghai Gulf National Forest Park)": {
      "locId": "L8683517",
      "locName": "上海海湾国家森林公园 (Shanghai Gulf National Forest Park)",
      "countryCode": "CN",
      "subnational1Code": "CN-31",
      "lat": 30.8547493,
      "lng": 121.6898088,
      "latestObsDt": "2025-09-18 13:32",
      "numSpeciesAllTime": 175
    },
    "上海淞沪抗战纪念公园 (The Battle of Shanghai Memorial Park)": {
      "locId": "L39480690",
      "locName": "上海淞沪抗战纪念公园 (The Battle of Shanghai Memorial Park)",
      "countryCode": "CN",
      "subnational1Code": "CN-31",
      "lat": 31.409463,
      "lng": 121.4939755,
      "latestObsDt": "2025-10-17 13:35",
      "numSpeciesAllTime": 25
    },
    "上海滨海森林公园 (Shanghai Coastal Forest Park)": {
      "locId": "L5266169",
      "locName": "上海滨海森林公园 (Shanghai Coastal Forest Park)",
      "countryCode": "CN",
      "subnational1Code": "CN-31",
      "lat": 30.966324,
      "lng": 121.910289,
      "latestObsDt": "2025-10-13 09:16",
      "numSpeciesAllTime": 148
    },
    "上海科技大学 (ShanghaiTech University)": {
      "locId": "L37560690",
      "locName": "上海科技大学 (ShanghaiTech University)",
      "countryCode": "CN",
      "subnational1Code": "CN-31",
      "lat": 31.1770465,
      "lng": 121.5938726,
      "latestObsDt": "2025-11-02 07:43",
      "numSpeciesAllTime": 109
    },
    "上海薰衣草公园 (Shanghai Lavender Park)": {
      "locId": "L26329405",
      "locName": "上海薰衣草公园 (Shanghai Lavender Park)",
      "countryCode": "CN",
      "subnational1Code": "CN-31",
      "lat": 31.146306,
      "lng": 121.669035,
      "latestObsDt": "2023-08-01 17:23",
      "numSpeciesAllTime": 21
    },
    "上海虹桥国际机场 (Shanghai Hongqiao International Airport)": {
      "locId": "L9330294",
      "locName": "上海虹桥国际机场 (Shanghai Hongqiao International Airport)",
      "countryCode": "CN",
      "subnational1Code": "CN-31",
      "lat": 31.192105,
      "lng": 121.331373,
      "latestObsDt": "2025-03-28 13:33",
      "numSpeciesAllTime": 27
    },
    "上海西庭网球俱乐部及公寓 (Shanghai Racquet Club & Apartments)": {
      "locId": "L18378704",
      "locName": "上海西庭网球俱乐部及公寓 (Shanghai Racquet Club & Apartments)",
      "countryCode": "CN",
      "subnational1Code": "CN-31",
      "lat": 31.204726,
      "lng": 121.288858,
      "latestObsDt": "2024-07-28 15:48",
      "numSpeciesAllTime": 38
    },
    "上海辰山植物园 (Shanghai Chenshan Botanical Garden)": {
      "locId": "L18282994",
      "locName": "上海辰山植物园 (Shanghai Chenshan Botanical Garden)",
      "countryCode": "CN",
      "subnational1Code": "CN-31",
      "lat": 31.0772465,
      "lng": 121.1801648,
      "latestObsDt": "2025-09-25 13:36",
      "numSpeciesAllTime": 81
    },
    "上海迪士尼乐园 (Shanghai Disneyland)": {
      "locId": "L45427079",
      "locName": "上海迪士尼乐园 (Shanghai Disneyland)",
      "countryCode": "CN",
      "subnational1Code": "CN-31",
      "lat": 31.1421603,
      "lng": 121.6671318,
      "latestObsDt": "2025-09-08 10:44",
      "numSpeciesAllTime": 17
    },
    "上海野生动物园 (Shanghai Wild Animal Park)": {
      "locId": "L21902313",
      "locName": "上海野生动物园 (Shanghai Wild Animal Park)",
      "countryCode": "CN",
      "subnational1Code": "CN-31",
      "lat": 31.057479,
      "lng": 121.720941,
      "latestObsDt": "2025-10-30 13:56",
      "numSpeciesAllTime": 24
    },
    "上涉湖 (Shangshe Lake)": {
      "locId": "L38090219",
      "locName": "上涉湖 (Shangshe Lake)",
      "countryCode": "CN",
      "subnational1Code": "CN-42",
      "lat": 30.1345128,
      "lng": 114.2212486,
      "latestObsDt": "2022-02-19 09:00",
      "numSpeciesAllTime": 34
    },
    "上涌果树公园 (Shangyong Guoshu Park)": {
      "locId": "L40090390",
      "locName": "上涌果树公园 (Shangyong Guoshu Park)",
      "countryCode": "CN",
      "subnational1Code": "CN-44",
      "lat": 23.0756455,
      "lng": 113.3068555,
      "latestObsDt": "2025-10-26 07:29",
      "numSpeciesAllTime": 45
    },
    "上游水库 (Shangyou Reservoir)": {
      "locId": "L9746044",
      "locName": "上游水库 (Shangyou Reservoir)",
      "countryCode": "CN",
      "subnational1Code": "CN-53",
      "lat": 25.401685,
      "lng": 103.089137,
      "latestObsDt": "2019-11-19 15:00",
      "numSpeciesAllTime": 15
    },
    "上秦淮生态湿地公园 (Upper Qinhuai Wetland Park)": {
      "locId": "L54095395",
      "locName": "上秦淮生态湿地公园 (Upper Qinhuai Wetland Park)",
      "countryCode": "CN",
      "subnational1Code": "CN-32",
      "lat": 31.8693212,
      "lng": 118.8368797,
      "latestObsDt": "2023-12-31 13:00",
      "numSpeciesAllTime": 14
    },
    "上良湿地 (Shangliang Wetlands)": {
      "locId": "L30256418",
      "locName": "上良湿地 (Shangliang Wetlands)",
      "countryCode": "CN",
      "subnational1Code": "CN-44",
      "lat": 23.3108841,
      "lng": 114.1140316,
      "latestObsDt": "2024-03-31 14:30",
      "numSpeciesAllTime": 32
    },
    "上虎跳峡 (Upper Tiger Leaping Gorge)": {
      "locId": "L1319372",
      "locName": "上虎跳峡 (Upper Tiger Leaping Gorge)",
      "countryCode": "CN",
      "subnational1Code": "CN-53",
      "lat": 27.188974,
      "lng": 100.1157045,
      "latestObsDt": "2025-10-19 14:51",
      "numSpeciesAllTime": 163
    },
    "上虞滨江湿地公园 (Shangyu Riverside Wetland Park)": {
      "locId": "L29261706",
      "locName": "上虞滨江湿地公园 (Shangyu Riverside Wetland Park)",
      "countryCode": "CN",
      "subnational1Code": "CN-33",
      "lat": 30.000842,
      "lng": 120.8805091,
      "latestObsDt": "2025-03-15 06:37",
      "numSpeciesAllTime": 48
    },
    "上虞滨海围垦区 (Shangyu Coast)": {
      "locId": "L4285148",
      "locName": "上虞滨海围垦区 (Shangyu Coast)",
      "countryCode": "CN",
      "subnational1Code": "CN-33",
      "lat": 30.2138969,
      "lng": 120.8982819,
      "latestObsDt": "2025-11-02 14:30",
      "numSpeciesAllTime": 280
    },
    "上西村美丽田园": {
      "locId": "L29736173",
      "locName": "上西村美丽田园",
      "countryCode": "CN",
      "subnational1Code": "CN-44",
      "lat": 22.7966824,
      "lng": 114.6567166,
      "latestObsDt": "2025-10-05 16:00",
      "numSpeciesAllTime": 97
    },
    "上马台水库 (Shangmatai Reservoir)": {
      "locId": "L32490099",
      "locName": "上马台水库 (Shangmatai Reservoir)",
      "countryCode": "CN",
      "subnational1Code": "CN-12",
      "lat": 39.3719735,
      "lng": 117.2743158,
      "latestObsDt": "2022-10-10 06:30",
      "numSpeciesAllTime": 111
    },
    "下八家户 (Xiabajiahu)": {
      "locId": "L37992111",
      "locName": "下八家户 (Xiabajiahu)",
      "countryCode": "CN",
      "subnational1Code": "CN-65",
      "lat": 44.4088461,
      "lng": 86.1551436,
      "latestObsDt": "2025-10-07 17:00",
      "numSpeciesAllTime": 68
    },
    "下吴村 (Xiawu Village)": {
      "locId": "L38039786",
      "locName": "下吴村 (Xiawu Village)",
      "countryCode": "CN",
      "subnational1Code": "CN-35",
      "lat": 25.9103547,
      "lng": 119.5870775,
      "latestObsDt": "2025-10-22 10:25",
      "numSpeciesAllTime": 102
    },
    "下坪村 (Xiaping Village)": {
      "locId": "L39816759",
      "locName": "下坪村 (Xiaping Village)",
      "countryCode": "CN",
      "subnational1Code": "CN-44",
      "lat": 23.7099946,
      "lng": 116.6826601
    },
    "下塘村 (Xiatang Village)": {
      "locId": "L17351782",
      "locName": "下塘村 (Xiatang Village)",
      "countryCode": "CN",
      "subnational1Code": "CN-46",
      "lat": 19.9655842,
      "lng": 110.5832463,
      "latestObsDt": "2025-04-09 07:07",
      "numSpeciesAllTime": 107
    },
    "下大陈岛 (Lower Dachen Island)": {
      "locId": "L37636198",
      "locName": "下大陈岛 (Lower Dachen Island)",
      "countryCode": "CN",
      "subnational1Code": "CN-33",
      "lat": 28.4442592,
      "lng": 121.9009,
      "latestObsDt": "2025-04-20 00:00",
      "numSpeciesAllTime": 5
    },
    "下村 (Xiacun Lakefront)": {
      "locId": "L38127794",
      "locName": "下村 (Xiacun Lakefront)",
      "countryCode": "CN",
      "subnational1Code": "CN-53",
      "lat": 24.7698291,
      "lng": 102.715676,
      "latestObsDt": "2024-07-03 16:00",
      "numSpeciesAllTime": 34
    },
    "下沙沿江湿地 (Xiasha Riverside Wetlands)": {
      "locId": "L10824731",
      "locName": "下沙沿江湿地 (Xiasha Riverside Wetlands)",
      "countryCode": "CN",
      "subnational1Code": "CN-33",
      "lat": 30.2800734,
      "lng": 120.3835076,
      "latestObsDt": "2025-07-22 09:00",
      "numSpeciesAllTime": 84
    },
    "下洪水库 (Xiahong Reservoir)": {
      "locId": "L39857095",
      "locName": "下洪水库 (Xiahong Reservoir)",
      "countryCode": "CN",
      "subnational1Code": "CN-32",
      "lat": 34.1281002,
      "lng": 117.459141
    },
    "下渚湖 (Xiazhu Lake Wetlands)": {
      "locId": "L3166711",
      "locName": "下渚湖 (Xiazhu Lake Wetlands)",
      "countryCode": "CN",
      "subnational1Code": "CN-33",
      "lat": 30.5171257,
      "lng": 120.0532079,
      "latestObsDt": "2025-07-31 10:20",
      "numSpeciesAllTime": 146
    },
    "下潭尾湿地公园 (Xiatanwei Wetland Park)": {
      "locId": "L39795142",
      "locName": "下潭尾湿地公园 (Xiatanwei Wetland Park)",
      "countryCode": "CN",
      "subnational1Code": "CN-35",
      "lat": 24.6457654,
      "lng": 118.1952226,
      "latestObsDt": "2025-03-22 09:09",
      "numSpeciesAllTime": 31
    },
    "下节土楼 (Xiajie Tulou Scenic Area)": {
      "locId": "L26127525",
      "locName": "下节土楼 (Xiajie Tulou Scenic Area)",
      "countryCode": "CN",
      "subnational1Code": "CN-35",
      "lat": 24.5942493,
      "lng": 117.0480367,
      "latestObsDt": "2024-11-14 10:39",
      "numSpeciesAllTime": 18
    },
    "不冻泉 (Unfrozen Spring)": {
      "locId": "L34586187",
      "locName": "不冻泉 (Unfrozen Spring)",
      "countryCode": "CN",
      "subnational1Code": "CN-63",
      "lat": 35.519536,
      "lng": 93.916289,
      "latestObsDt": "2024-11-09 11:06",
      "numSpeciesAllTime": 11
    },
    "不老屯 (Bulaotun)": {
      "locId": "L2401562",
      "locName": "不老屯 (Bulaotun)",
      "countryCode": "CN",
      "subnational1Code": "CN-11",
      "lat": 40.5367642,
      "lng": 116.9741821,
      "latestObsDt": "2025-10-04 10:00",
      "numSpeciesAllTime": 279
    },
    "世博文化公园 (Expo Culture Park)": {
      "locId": "L37559803",
      "locName": "世博文化公园 (Expo Culture Park)",
      "countryCode": "CN",
      "subnational1Code": "CN-31",
      "lat": 31.1817454,
      "lng": 121.4798212,
      "latestObsDt": "2025-10-26 10:30",
      "numSpeciesAllTime": 63
    },
    "世博生态城 (Expo Eco-Town)": {
      "locId": "L16624689",
      "locName": "世博生态城 (Expo Eco-Town)",
      "countryCode": "CN",
      "subnational1Code": "CN-53",
      "lat": 25.0817523,
      "lng": 102.7561054,
      "latestObsDt": "2025-09-09 13:28",
      "numSpeciesAllTime": 35
    },
    "世博绿色出行林 (Expo Woods)": {
      "locId": "L40002578",
      "locName": "世博绿色出行林 (Expo Woods)",
      "countryCode": "CN",
      "subnational1Code": "CN-31",
      "lat": 31.1227129,
      "lng": 121.4627806,
      "latestObsDt": "2025-02-08 15:42",
      "numSpeciesAllTime": 15
    },
    "世纪公园 (Century Park)": {
      "locId": "L1029418",
      "locName": "世纪公园 (Century Park)",
      "countryCode": "CN",
      "subnational1Code": "CN-31",
      "lat": 31.214967,
      "lng": 121.5496015,
      "latestObsDt": "2025-11-02 15:08",
      "numSpeciesAllTime": 223
    },
    "世纪城天鹅湖 (Swan Lake at Century City)": {
      "locId": "L2315284",
      "locName": "世纪城天鹅湖 (Swan Lake at Century City)",
      "countryCode": "CN",
      "subnational1Code": "CN-51",
      "lat": 30.5585078,
      "lng": 104.0721624,
      "latestObsDt": "2025-04-30 17:24",
      "numSpeciesAllTime": 30
    },
    "世纪塘路南线海滨 (Shijitang Rd South Coast)": {
      "locId": "L29248901",
      "locName": "世纪塘路南线海滨 (Shijitang Rd South Coast)",
      "countryCode": "CN",
      "subnational1Code": "CN-31",
      "lat": 30.86285,
      "lng": 121.9277581,
      "latestObsDt": "2025-10-13 15:21",
      "numSpeciesAllTime": 183
    },
    "丙闷榕树群 (Bingmen Banyan Grove)": {
      "locId": "L6853243",
      "locName": "丙闷榕树群 (Bingmen Banyan Grove)",
      "countryCode": "CN",
      "subnational1Code": "CN-53",
      "lat": 25.0637,
      "lng": 98.8337,
      "latestObsDt": "2025-01-14 14:38",
      "numSpeciesAllTime": 47
    },
    "丛台公园 (Congtai Park)": {
      "locId": "L38113681",
      "locName": "丛台公园 (Congtai Park)",
      "countryCode": "CN",
      "subnational1Code": "CN-13",
      "lat": 36.615695,
      "lng": 114.4906965
    },
    "东丽湖 (Dongli Lake)": {
      "locId": "L32227957",
      "locName": "东丽湖 (Dongli Lake)",
      "countryCode": "CN",
      "subnational1Code": "CN-12",
      "lat": 39.1661457,
      "lng": 117.4845517,
      "latestObsDt": "2025-10-12 09:31",
      "numSpeciesAllTime": 78
    },
    "东仲林场 (Dongzhong Forest)": {
      "locId": "L11116758",
      "locName": "东仲林场 (Dongzhong Forest)",
      "countryCode": "CN",
      "subnational1Code": "CN-63",
      "lat": 32.661908,
      "lng": 97.4649572,
      "latestObsDt": "2018-08-14 07:00",
      "numSpeciesAllTime": 18
    },
    "东侨体育公园 (Dongqiao Sports Park)": {
      "locId": "L23723062",
      "locName": "东侨体育公园 (Dongqiao Sports Park)",
      "countryCode": "CN",
      "subnational1Code": "CN-35",
      "lat": 26.742193,
      "lng": 119.562534,
      "latestObsDt": "2023-07-19 08:50",
      "numSpeciesAllTime": 19
    },
    "东凌 (​Dongling Coast)": {
      "locId": "L6183781",
      "locName": "东凌 (​Dongling Coast)",
      "countryCode": "CN",
      "subnational1Code": "CN-32",
      "lat": 32.22442,
      "lng": 121.534255,
      "latestObsDt": "2025-10-21 12:35",
      "numSpeciesAllTime": 275
    },
    "东凌水库 (Dongling Reservoir)": {
      "locId": "L32413960",
      "locName": "东凌水库 (Dongling Reservoir)",
      "countryCode": "CN",
      "subnational1Code": "CN-32",
      "lat": 32.2980824,
      "lng": 121.4302801,
      "latestObsDt": "2025-10-17 14:16",
      "numSpeciesAllTime": 160
    },
    "东凌海蜇塘 (Dongling Jellyfish Farm)": {
      "locId": "L39866719",
      "locName": "东凌海蜇塘 (Dongling Jellyfish Farm)",
      "countryCode": "CN",
      "subnational1Code": "CN-32",
      "lat": 32.2549168,
      "lng": 121.4685707,
      "latestObsDt": "2025-10-22 09:00",
      "numSpeciesAllTime": 156
    },
    "东北林业大学林场 (Northeast Forestry University--Experimental Forest)": {
      "locId": "L38035966",
      "locName": "东北林业大学林场 (Northeast Forestry University--Experimental Forest)",
      "countryCode": "CN",
      "subnational1Code": "CN-23",
      "lat": 45.7223749,
      "lng": 126.6298289,
      "latestObsDt": "2025-04-26 13:20",
      "numSpeciesAllTime": 18
    },
    "东升八家郊野公园东园 (Dongsheng Bajia Country Park East)": {
      "locId": "L36715924",
      "locName": "东升八家郊野公园东园 (Dongsheng Bajia Country Park East)",
      "countryCode": "CN",
      "subnational1Code": "CN-11",
      "lat": 40.0200022,
      "lng": 116.3397905,
      "latestObsDt": "2025-03-29 08:51",
      "numSpeciesAllTime": 15
    },
    "东升八家郊野公园西园 (Dongsheng Bajia Country Park West)": {
      "locId": "L17743645",
      "locName": "东升八家郊野公园西园 (Dongsheng Bajia Country Park West)",
      "countryCode": "CN",
      "subnational1Code": "CN-11",
      "lat": 40.0182993,
      "lng": 116.3338108,
      "latestObsDt": "2025-09-20 17:07",
      "numSpeciesAllTime": 49
    },
    "东升水库 (Dongsheng Reservoir)": {
      "locId": "L51136412",
      "locName": "东升水库 (Dongsheng Reservoir)",
      "countryCode": "CN",
      "subnational1Code": "CN-23",
      "lat": 47.3044879,
      "lng": 124.4963106,
      "latestObsDt": "2025-08-07 04:35",
      "numSpeciesAllTime": 43
    },
    "东单公园 (Dongdan Park)": {
      "locId": "L36914383",
      "locName": "东单公园 (Dongdan Park)",
      "countryCode": "CN",
      "subnational1Code": "CN-11",
      "lat": 39.9047778,
      "lng": 116.41729,
      "latestObsDt": "2025-11-01 10:44",
      "numSpeciesAllTime": 2
    },
    "东南大学九龙湖校区 (Southeast University - Jiulong Lake Campus)": {
      "locId": "L39863679",
      "locName": "东南大学九龙湖校区 (Southeast University - Jiulong Lake Campus)",
      "countryCode": "CN",
      "subnational1Code": "CN-32",
      "lat": 31.8874805,
      "lng": 118.8192825,
      "latestObsDt": "2025-09-29 13:00",
      "numSpeciesAllTime": 81
    },
    "东南大学四牌楼校区 (Southeast University - Sipailou Campus)": {
      "locId": "L54111422",
      "locName": "东南大学四牌楼校区 (Southeast University - Sipailou Campus)",
      "countryCode": "CN",
      "subnational1Code": "CN-32",
      "lat": 32.0559905,
      "lng": 118.7942004,
      "latestObsDt": "2024-05-22 16:00",
      "numSpeciesAllTime": 14
    },
    "东古湖观鸟中心 (East Guhu Wetlands)": {
      "locId": "L38537303",
      "locName": "东古湖观鸟中心 (East Guhu Wetlands)",
      "countryCode": "CN",
      "subnational1Code": "CN-43",
      "lat": 28.8853929,
      "lng": 112.9327837,
      "latestObsDt": "2025-01-21 15:50",
      "numSpeciesAllTime": 68
    },
    "东台人民公园 (People's Park, Dongtai)": {
      "locId": "L17695759",
      "locName": "东台人民公园 (People's Park, Dongtai)",
      "countryCode": "CN",
      "subnational1Code": "CN-32",
      "lat": 32.8381594,
      "lng": 120.3210855,
      "latestObsDt": "2025-05-28 16:51",
      "numSpeciesAllTime": 26
    },
    "东台山国家森林公园 (Dongtaishan Forest Park)": {
      "locId": "L38527697",
      "locName": "东台山国家森林公园 (Dongtaishan Forest Park)",
      "countryCode": "CN",
      "subnational1Code": "CN-43",
      "lat": 27.7197965,
      "lng": 112.562827
    },
    "东吴文化公园 (Soochow Cultural Park)": {
      "locId": "L13182037",
      "locName": "东吴文化公园 (Soochow Cultural Park)",
      "countryCode": "CN",
      "subnational1Code": "CN-33",
      "lat": 30.024354,
      "lng": 119.9382691,
      "latestObsDt": "2025-05-03 08:51",
      "numSpeciesAllTime": 34
    },
    "东善桥林场东大山": {
      "locId": "L54093570",
      "locName": "东善桥林场东大山",
      "countryCode": "CN",
      "subnational1Code": "CN-32",
      "lat": 31.8550272,
      "lng": 118.7884327,
      "latestObsDt": "2025-09-18 08:00",
      "numSpeciesAllTime": 59
    },
    "东园 (East Garden)": {
      "locId": "L39907813",
      "locName": "东园 (East Garden)",
      "countryCode": "CN",
      "subnational1Code": "CN-32",
      "lat": 31.3190257,
      "lng": 120.6382852,
      "latestObsDt": "2025-10-19 15:53",
      "numSpeciesAllTime": 52
    },
    "东坝郊野公园 (Dongba Country Park)": {
      "locId": "L13989779",
      "locName": "东坝郊野公园 (Dongba Country Park)",
      "countryCode": "CN",
      "subnational1Code": "CN-11",
      "lat": 39.9531828,
      "lng": 116.5770062,
      "latestObsDt": "2025-10-30 13:24",
      "numSpeciesAllTime": 52
    },
    "东坡书院 (Dongpo Shuyuan)": {
      "locId": "L23205821",
      "locName": "东坡书院 (Dongpo Shuyuan)",
      "countryCode": "CN",
      "subnational1Code": "CN-46",
      "lat": 19.737943,
      "lng": 109.356425,
      "latestObsDt": "2025-02-16 17:03",
      "numSpeciesAllTime": 27
    },
    "东坡园 (Dongpo Park)": {
      "locId": "L39904185",
      "locName": "东坡园 (Dongpo Park)",
      "countryCode": "CN",
      "subnational1Code": "CN-32",
      "lat": 31.7672898,
      "lng": 119.9768874,
      "latestObsDt": "2025-03-09 09:00",
      "numSpeciesAllTime": 5
    },
    "东坡城市湿地公园 (Dongpo Urban Wetland Park)": {
      "locId": "L38175429",
      "locName": "东坡城市湿地公园 (Dongpo Urban Wetland Park)",
      "countryCode": "CN",
      "subnational1Code": "CN-51",
      "lat": 30.0594939,
      "lng": 103.8579192,
      "latestObsDt": "2025-04-26 10:58",
      "numSpeciesAllTime": 17
    },
    "东坡赤壁 (Dongpo Red Cliffs)": {
      "locId": "L38896904",
      "locName": "东坡赤壁 (Dongpo Red Cliffs)",
      "countryCode": "CN",
      "subnational1Code": "CN-42",
      "lat": 30.4557964,
      "lng": 114.8695412
    },
    "东堤公园 (Dongdi Park)": {
      "locId": "L22337248",
      "locName": "东堤公园 (Dongdi Park)",
      "countryCode": "CN",
      "subnational1Code": "CN-12",
      "lat": 39.0868708,
      "lng": 117.8286401,
      "latestObsDt": "2025-07-04 17:05",
      "numSpeciesAllTime": 61
    },
    "东壁岛垦区 (Dongbi Island Reclamation Area)": {
      "locId": "L22315019",
      "locName": "东壁岛垦区 (Dongbi Island Reclamation Area)",
      "countryCode": "CN",
      "subnational1Code": "CN-35",
      "lat": 25.5844236,
      "lng": 119.5112491,
      "latestObsDt": "2024-03-09 15:00",
      "numSpeciesAllTime": 67
    },
    "东大圩 (East Polder)": {
      "locId": "L24877177",
      "locName": "东大圩 (East Polder)",
      "countryCode": "CN",
      "subnational1Code": "CN-32",
      "lat": 31.015849,
      "lng": 120.409974,
      "latestObsDt": "2025-03-29 14:55",
      "numSpeciesAllTime": 113
    },
    "东大森林公园 (Dongda Forest Park)": {
      "locId": "L28044177",
      "locName": "东大森林公园 (Dongda Forest Park)",
      "countryCode": "CN",
      "subnational1Code": "CN-53",
      "lat": 25.0942934,
      "lng": 102.8376915,
      "latestObsDt": "2024-06-29 15:31",
      "numSpeciesAllTime": 12
    },
    "东大河湿地 (Dongdahe Wetlands)": {
      "locId": "L14475222",
      "locName": "东大河湿地 (Dongdahe Wetlands)",
      "countryCode": "CN",
      "subnational1Code": "CN-53",
      "lat": 24.6818453,
      "lng": 102.6337811,
      "latestObsDt": "2025-02-06 09:12",
      "numSpeciesAllTime": 124
    },
    "东大滩水库 (Dongdatan Reservoir)": {
      "locId": "L39614714",
      "locName": "东大滩水库 (Dongdatan Reservoir)",
      "countryCode": "CN",
      "subnational1Code": "CN-63",
      "lat": 36.8658132,
      "lng": 101.0330679,
      "latestObsDt": "2025-10-21 14:21",
      "numSpeciesAllTime": 32
    },
    "东天目山 (East Tianmu Mountain)": {
      "locId": "L3632631",
      "locName": "东天目山 (East Tianmu Mountain)",
      "countryCode": "CN",
      "subnational1Code": "CN-33",
      "lat": 30.342422,
      "lng": 119.50949,
      "latestObsDt": "2024-03-19 10:46",
      "numSpeciesAllTime": 56
    },
    "东太湖新联湿地 (East Taihu Xinlian Wetlands)": {
      "locId": "L26284657",
      "locName": "东太湖新联湿地 (East Taihu Xinlian Wetlands)",
      "countryCode": "CN",
      "subnational1Code": "CN-32",
      "lat": 31.116616,
      "lng": 120.540504,
      "latestObsDt": "2025-10-03 07:12",
      "numSpeciesAllTime": 131
    },
    "东太湖生态园 (East Taihu Eco-Park)": {
      "locId": "L22532625",
      "locName": "东太湖生态园 (East Taihu Eco-Park)",
      "countryCode": "CN",
      "subnational1Code": "CN-32",
      "lat": 31.1522107,
      "lng": 120.6001397,
      "latestObsDt": "2025-10-23 15:00",
      "numSpeciesAllTime": 43
    },
    "东安湖公园 (Dong'an Lake Park)": {
      "locId": "L27939892",
      "locName": "东安湖公园 (Dong'an Lake Park)",
      "countryCode": "CN",
      "subnational1Code": "CN-51",
      "lat": 30.5862869,
      "lng": 104.2259974,
      "latestObsDt": "2025-04-01 11:29",
      "numSpeciesAllTime": 48
    },
    "东安紫水湿地公园 (Dong'an Zishui Wetland Park)": {
      "locId": "L38501993",
      "locName": "东安紫水湿地公园 (Dong'an Zishui Wetland Park)",
      "countryCode": "CN",
      "subnational1Code": "CN-43",
      "lat": 26.3881201,
      "lng": 111.3177376
    },
    "东安舜皇山国家级自然保护区 (Shunhuang Mountain NNR)": {
      "locId": "L1795785",
      "locName": "东安舜皇山国家级自然保护区 (Shunhuang Mountain NNR)",
      "countryCode": "CN",
      "subnational1Code": "CN-43",
      "lat": 26.4167,
      "lng": 111.03,
      "latestObsDt": "2016-06-22 06:00",
      "numSpeciesAllTime": 104
    },
    "东宝山 (Dongbao Mountain)": {
      "locId": "L39581742",
      "locName": "东宝山 (Dongbao Mountain)",
      "countryCode": "CN",
      "subnational1Code": "CN-42",
      "lat": 31.0172218,
      "lng": 112.2098073
    },
    "东寨港 (Dongzhai Harbor)": {
      "locId": "L3480466",
      "locName": "东寨港 (Dongzhai Harbor)",
      "countryCode": "CN",
      "subnational1Code": "CN-46",
      "lat": 19.9473715,
      "lng": 110.6058884,
      "latestObsDt": "2025-07-14 07:04",
      "numSpeciesAllTime": 121
    },
    "东寮岛 (Dongliao Island)": {
      "locId": "L14877053",
      "locName": "东寮岛 (Dongliao Island)",
      "countryCode": "CN",
      "subnational1Code": "CN-44",
      "lat": 20.820869,
      "lng": 110.383032,
      "latestObsDt": "2021-05-08 16:00",
      "numSpeciesAllTime": 21
    },
    "东小口森林公园 (Dongxiaokou Forest Park)": {
      "locId": "L14683209",
      "locName": "东小口森林公园 (Dongxiaokou Forest Park)",
      "countryCode": "CN",
      "subnational1Code": "CN-11",
      "lat": 40.0464089,
      "lng": 116.3876099,
      "latestObsDt": "2025-09-02 07:26",
      "numSpeciesAllTime": 145
    },
    "东居延海 (Sugu Nuur)": {
      "locId": "L7234701",
      "locName": "东居延海 (Sugu Nuur)",
      "countryCode": "CN",
      "subnational1Code": "CN-15",
      "lat": 42.3364652,
      "lng": 101.2464666,
      "latestObsDt": "2022-07-25 18:56",
      "numSpeciesAllTime": 40
    },
    "东山公园 (Dongshan Park)": {
      "locId": "L10919749",
      "locName": "东山公园 (Dongshan Park)",
      "countryCode": "CN",
      "subnational1Code": "CN-33",
      "lat": 28.68003,
      "lng": 121.4543196,
      "latestObsDt": "2025-03-09 11:00",
      "numSpeciesAllTime": 27
    },
    "东山岭 (Dongshan Ridge)": {
      "locId": "L8340216",
      "locName": "东山岭 (Dongshan Ridge)",
      "countryCode": "CN",
      "subnational1Code": "CN-46",
      "lat": 18.8023181,
      "lng": 110.4240131,
      "latestObsDt": "2018-12-31 16:30",
      "numSpeciesAllTime": 12
    },
    "东山村湿地 (Dongshan Wetlands)": {
      "locId": "L39820193",
      "locName": "东山村湿地 (Dongshan Wetlands)",
      "countryCode": "CN",
      "subnational1Code": "CN-44",
      "lat": 22.8953387,
      "lng": 115.5367821,
      "latestObsDt": "2025-02-07 09:30",
      "numSpeciesAllTime": 74
    },
    "东山森林公园 (Dongshan Forest Park)": {
      "locId": "L22280596",
      "locName": "东山森林公园 (Dongshan Forest Park)",
      "countryCode": "CN",
      "subnational1Code": "CN-32",
      "lat": 31.094257,
      "lng": 120.396998,
      "latestObsDt": "2025-10-02 06:30",
      "numSpeciesAllTime": 52
    },
    "东山湖公园 (Dongshan Lake Park)": {
      "locId": "L4347809",
      "locName": "东山湖公园 (Dongshan Lake Park)",
      "countryCode": "CN",
      "subnational1Code": "CN-44",
      "lat": 23.1148567,
      "lng": 113.2928861,
      "latestObsDt": "2025-09-02 15:11",
      "numSpeciesAllTime": 74
    },
    "东山码头 (Dongshan Wharf)": {
      "locId": "L33430910",
      "locName": "东山码头 (Dongshan Wharf)",
      "countryCode": "CN",
      "subnational1Code": "CN-44",
      "lat": 22.557054,
      "lng": 114.530072,
      "latestObsDt": "2025-08-03 11:11",
      "numSpeciesAllTime": 64
    },
    "东岛 (Dong Dao/Lincoln Island)": {
      "locId": "L36200817",
      "locName": "东岛 (Dong Dao/Lincoln Island)",
      "countryCode": "CN",
      "subnational1Code": "CN-46",
      "lat": 16.666664,
      "lng": 112.7304193
    },
    "东岩公园 (Dongyan Park)": {
      "locId": "L38175376",
      "locName": "东岩公园 (Dongyan Park)",
      "countryCode": "CN",
      "subnational1Code": "CN-51",
      "lat": 28.882298,
      "lng": 105.4655148
    },
    "东岸湿地公园 (East Bank Wetland Park)": {
      "locId": "L38081257",
      "locName": "东岸湿地公园 (East Bank Wetland Park)",
      "countryCode": "CN",
      "subnational1Code": "CN-46",
      "lat": 18.2849387,
      "lng": 109.51231,
      "latestObsDt": "2025-01-31 10:01",
      "numSpeciesAllTime": 56
    },
    "东平国家森林公园 (Dongping National Forest Park)": {
      "locId": "L15112847",
      "locName": "东平国家森林公园 (Dongping National Forest Park)",
      "countryCode": "CN",
      "subnational1Code": "CN-31",
      "lat": 31.6817983,
      "lng": 121.4827824,
      "latestObsDt": "2024-12-17 10:49",
      "numSpeciesAllTime": 77
    },
    "东平河石湾湿地公园 (Dongping River Shiwan Wetland Park)": {
      "locId": "L39963271",
      "locName": "东平河石湾湿地公园 (Dongping River Shiwan Wetland Park)",
      "countryCode": "CN",
      "subnational1Code": "CN-44",
      "lat": 22.9793845,
      "lng": 113.1337738
    },
    "东庠岛 (Dongxiang Island)": {
      "locId": "L22914200",
      "locName": "东庠岛 (Dongxiang Island)",
      "countryCode": "CN",
      "subnational1Code": "CN-35",
      "lat": 25.5904225,
      "lng": 119.8915379,
      "latestObsDt": "2024-08-31 07:00",
      "numSpeciesAllTime": 24
    },
    "东方华地城": {
      "locId": "L13688800",
      "locName": "东方华地城",
      "countryCode": "CN",
      "subnational1Code": "CN-21",
      "lat": 40.92217,
      "lng": 121.566433,
      "latestObsDt": "2025-10-20 09:24",
      "numSpeciesAllTime": 111
    },
    "东方绿舟 (Shanghai Oriental Land)": {
      "locId": "L21755447",
      "locName": "东方绿舟 (Shanghai Oriental Land)",
      "countryCode": "CN",
      "subnational1Code": "CN-31",
      "lat": 31.102044,
      "lng": 121.004178,
      "latestObsDt": "2025-09-06 10:17",
      "numSpeciesAllTime": 48
    },
    "东方黑脸琵鹭省级自然保护区 (Dongfang Black-faced Spoonbill PNR)": {
      "locId": "L8220051",
      "locName": "东方黑脸琵鹭省级自然保护区 (Dongfang Black-faced Spoonbill PNR)",
      "countryCode": "CN",
      "subnational1Code": "CN-46",
      "lat": 19.214953,
      "lng": 108.642429,
      "latestObsDt": "2023-01-27 10:30",
      "numSpeciesAllTime": 89
    },
    "东日湿地 (Dongri Wetlands)": {
      "locId": "L23673987",
      "locName": "东日湿地 (Dongri Wetlands)",
      "countryCode": "CN",
      "subnational1Code": "CN-31",
      "lat": 30.931944,
      "lng": 121.912222,
      "latestObsDt": "2025-10-31 21:37",
      "numSpeciesAllTime": 206
    },
    "东昌湖--湿地岛 (Dongchang Lake--SE Wetlands)": {
      "locId": "L38786329",
      "locName": "东昌湖--湿地岛 (Dongchang Lake--SE Wetlands)",
      "countryCode": "CN",
      "subnational1Code": "CN-37",
      "lat": 36.4347356,
      "lng": 115.9739761,
      "latestObsDt": "2025-04-09 09:12",
      "numSpeciesAllTime": 6
    },
    "东明山森林公园 (Dongming Mountain Forest Park)": {
      "locId": "L12765531",
      "locName": "东明山森林公园 (Dongming Mountain Forest Park)",
      "countryCode": "CN",
      "subnational1Code": "CN-33",
      "lat": 30.4332006,
      "lng": 119.9983827,
      "latestObsDt": "2025-03-29 15:30",
      "numSpeciesAllTime": 100
    },
    "东极岛 [庙子湖] (Dongji Island [Miaozihu])": {
      "locId": "L11649733",
      "locName": "东极岛 [庙子湖] (Dongji Island [Miaozihu])",
      "countryCode": "CN",
      "subnational1Code": "CN-33",
      "lat": 30.1938075,
      "lng": 122.6872885,
      "latestObsDt": "2025-05-03 12:54",
      "numSpeciesAllTime": 141
    },
    "东林山 (Donglin Hill)": {
      "locId": "L13140062",
      "locName": "东林山 (Donglin Hill)",
      "countryCode": "CN",
      "subnational1Code": "CN-33",
      "lat": 30.6826786,
      "lng": 120.0973038,
      "latestObsDt": "2025-01-07 00:00",
      "numSpeciesAllTime": 11
    },
    "东沙湖生态公园 (Dongshahu Eco-Park)": {
      "locId": "L13341721",
      "locName": "东沙湖生态公园 (Dongshahu Eco-Park)",
      "countryCode": "CN",
      "subnational1Code": "CN-32",
      "lat": 31.340694,
      "lng": 120.7731657,
      "latestObsDt": "2025-11-02 14:10",
      "numSpeciesAllTime": 79
    },
    "东洛岛 (Dongluo Island)": {
      "locId": "L39793875",
      "locName": "东洛岛 (Dongluo Island)",
      "countryCode": "CN",
      "subnational1Code": "CN-35",
      "lat": 25.7607445,
      "lng": 119.6754618
    },
    "东洞庭湖国家级自然保护区 (East Dongting Lake NNR)": {
      "locId": "L8325760",
      "locName": "东洞庭湖国家级自然保护区 (East Dongting Lake NNR)",
      "countryCode": "CN",
      "subnational1Code": "CN-43",
      "lat": 29.2673809,
      "lng": 112.9822527,
      "latestObsDt": "2025-01-02 14:00",
      "numSpeciesAllTime": 209
    },
    "东浦农场 (Dongpu Farm)": {
      "locId": "L10971258",
      "locName": "东浦农场 (Dongpu Farm)",
      "countryCode": "CN",
      "subnational1Code": "CN-33",
      "lat": 28.3222089,
      "lng": 121.536188,
      "latestObsDt": "2025-09-14 12:00",
      "numSpeciesAllTime": 219
    },
    "东海岸公园 (East Coast Park)": {
      "locId": "L28532242",
      "locName": "东海岸公园 (East Coast Park)",
      "countryCode": "CN",
      "subnational1Code": "CN-44",
      "lat": 23.3238664,
      "lng": 116.7800556,
      "latestObsDt": "2025-07-13 16:41",
      "numSpeciesAllTime": 11
    },
    "东涌红树林湿地园 (Dongyong Mangrove Wetlands)": {
      "locId": "L40083943",
      "locName": "东涌红树林湿地园 (Dongyong Mangrove Wetlands)",
      "countryCode": "CN",
      "subnational1Code": "CN-44",
      "lat": 22.4917895,
      "lng": 114.574964,
      "latestObsDt": "2024-01-11 09:47",
      "numSpeciesAllTime": 5
    },
    "东淠河霍山段 (Dongpi Section - Huoshan Section)": {
      "locId": "L12928572",
      "locName": "东淠河霍山段 (Dongpi Section - Huoshan Section)",
      "countryCode": "CN",
      "subnational1Code": "CN-34",
      "lat": 31.4220183,
      "lng": 116.2813652,
      "latestObsDt": "2024-11-21 07:30",
      "numSpeciesAllTime": 106
    },
    "东港湖 (Donggang Lake)": {
      "locId": "L39575560",
      "locName": "东港湖 (Donggang Lake)",
      "countryCode": "CN",
      "subnational1Code": "CN-42",
      "lat": 29.6831515,
      "lng": 113.5939772
    },
    "东湖公园 (Donghu Park)": {
      "locId": "L17616196",
      "locName": "东湖公园 (Donghu Park)",
      "countryCode": "CN",
      "subnational1Code": "CN-51",
      "lat": 30.6195218,
      "lng": 104.0879488,
      "latestObsDt": "2025-11-02 12:00",
      "numSpeciesAllTime": 69
    },
    "东湖公园 (Donghu Park, Panjin)": {
      "locId": "L3574326",
      "locName": "东湖公园 (Donghu Park, Panjin)",
      "countryCode": "CN",
      "subnational1Code": "CN-21",
      "lat": 40.9940838,
      "lng": 122.0805717,
      "latestObsDt": "2025-05-16 14:59",
      "numSpeciesAllTime": 41
    },
    "东湖公园 (Donghu Park, Pinghu)": {
      "locId": "L13734651",
      "locName": "东湖公园 (Donghu Park, Pinghu)",
      "countryCode": "CN",
      "subnational1Code": "CN-33",
      "lat": 30.698238,
      "lng": 121.0271989,
      "latestObsDt": "2024-06-26 00:00",
      "numSpeciesAllTime": 15
    },
    "东湖听涛景区 (East Lake Tingtao Scenic Area)": {
      "locId": "L39722778",
      "locName": "东湖听涛景区 (East Lake Tingtao Scenic Area)",
      "countryCode": "CN",
      "subnational1Code": "CN-42",
      "lat": 30.5640865,
      "lng": 114.3736377,
      "latestObsDt": "2025-07-13 13:00",
      "numSpeciesAllTime": 40
    },
    "东湖大门山公园 (Donghu Damenshan Park)": {
      "locId": "L39654577",
      "locName": "东湖大门山公园 (Donghu Damenshan Park)",
      "countryCode": "CN",
      "subnational1Code": "CN-35",
      "lat": 26.6561164,
      "lng": 119.5605188,
      "latestObsDt": "2025-02-03 12:54",
      "numSpeciesAllTime": 24
    },
    "东湖山公园 (Donghushan Park)": {
      "locId": "L38175385",
      "locName": "东湖山公园 (Donghushan Park)",
      "countryCode": "CN",
      "subnational1Code": "CN-51",
      "lat": 31.1352991,
      "lng": 104.4268577,
      "latestObsDt": "2025-02-13 16:00",
      "numSpeciesAllTime": 20
    },
    "东湖梅园 (East Lake Plum Garden)": {
      "locId": "L39719784",
      "locName": "东湖梅园 (East Lake Plum Garden)",
      "countryCode": "CN",
      "subnational1Code": "CN-42",
      "lat": 30.5425949,
      "lng": 114.4012555,
      "latestObsDt": "2025-06-17 15:34",
      "numSpeciesAllTime": 15
    },
    "东湖绿道 (East Lake Greenway)": {
      "locId": "L17973998",
      "locName": "东湖绿道 (East Lake Greenway)",
      "countryCode": "CN",
      "subnational1Code": "CN-42",
      "lat": 30.5688981,
      "lng": 114.3937615,
      "latestObsDt": "2025-07-08 17:00",
      "numSpeciesAllTime": 122
    },
    "东湖落雁景区 (East Lake Luoyan Scenic Area)": {
      "locId": "L21662706",
      "locName": "东湖落雁景区 (East Lake Luoyan Scenic Area)",
      "countryCode": "CN",
      "subnational1Code": "CN-42",
      "lat": 30.5599719,
      "lng": 114.4298545,
      "latestObsDt": "2025-06-24 14:47",
      "numSpeciesAllTime": 58
    },
    "东湖银河桥 (East Lake Yinhe Bridge)": {
      "locId": "L39722753",
      "locName": "东湖银河桥 (East Lake Yinhe Bridge)",
      "countryCode": "CN",
      "subnational1Code": "CN-42",
      "lat": 30.5895191,
      "lng": 114.4106732,
      "latestObsDt": "2025-06-25 16:00",
      "numSpeciesAllTime": 35
    },
    "东滩湿地公园 (Dongtan Wetland Park)": {
      "locId": "L16861983",
      "locName": "东滩湿地公园 (Dongtan Wetland Park)",
      "countryCode": "CN",
      "subnational1Code": "CN-31",
      "lat": 31.517616,
      "lng": 121.9393413,
      "latestObsDt": "2025-10-25 13:28",
      "numSpeciesAllTime": 215
    },
    "东澳岛--庙湾 (Dong'ao Island--Miaowan)": {
      "locId": "L32953432",
      "locName": "东澳岛--庙湾 (Dong'ao Island--Miaowan)",
      "countryCode": "CN",
      "subnational1Code": "CN-44",
      "lat": 22.023809,
      "lng": 113.718347,
      "latestObsDt": "2024-06-07 13:55",
      "numSpeciesAllTime": 7
    },
    "东疆亲水公园 (Dongjiang Qinshui Park)": {
      "locId": "L22346379",
      "locName": "东疆亲水公园 (Dongjiang Qinshui Park)",
      "countryCode": "CN",
      "subnational1Code": "CN-12",
      "lat": 39.0357758,
      "lng": 117.8109874,
      "latestObsDt": "2025-02-14 15:53",
      "numSpeciesAllTime": 37
    },
    "东疆建设开发纪念公园 (Dongjiang Construction & Development Memorial Park)": {
      "locId": "L46527766",
      "locName": "东疆建设开发纪念公园 (Dongjiang Construction & Development Memorial Park)",
      "countryCode": "CN",
      "subnational1Code": "CN-12",
      "lat": 38.9761847,
      "lng": 117.8266829,
      "latestObsDt": "2025-09-07 06:54",
      "numSpeciesAllTime": 37
    },
    "东白山 (Dongbai Mountain, Zhuji)": {
      "locId": "L47090003",
      "locName": "东白山 (Dongbai Mountain, Zhuji)",
      "countryCode": "CN",
      "subnational1Code": "CN-33",
      "lat": 29.4785306,
      "lng": 120.4429008,
      "latestObsDt": "2025-10-27 00:00",
      "numSpeciesAllTime": 3
    },
    "东白杨沟 (East Aspen Valley)": {
      "locId": "L35419779",
      "locName": "东白杨沟 (East Aspen Valley)",
      "countryCode": "CN",
      "subnational1Code": "CN-65",
      "lat": 43.4114966,
      "lng": 87.2744361,
      "latestObsDt": "2025-06-29 10:05",
      "numSpeciesAllTime": 60
    },
    "东福山岛 (Dongfushan Island)": {
      "locId": "L37824693",
      "locName": "东福山岛 (Dongfushan Island)",
      "countryCode": "CN",
      "subnational1Code": "CN-33",
      "lat": 30.1321858,
      "lng": 122.7705018,
      "latestObsDt": "2025-06-01 10:28",
      "numSpeciesAllTime": 28
    },
    "东红海子 (East Honghaizi Lake)": {
      "locId": "L38019282",
      "locName": "东红海子 (East Honghaizi Lake)",
      "countryCode": "CN",
      "subnational1Code": "CN-15",
      "lat": 39.557822,
      "lng": 109.8110442,
      "latestObsDt": "2025-09-11 06:30",
      "numSpeciesAllTime": 35
    },
    "东胜公园 (Dongsheng Park)": {
      "locId": "L38019331",
      "locName": "东胜公园 (Dongsheng Park)",
      "countryCode": "CN",
      "subnational1Code": "CN-15",
      "lat": 39.8154218,
      "lng": 109.9622013,
      "latestObsDt": "2025-04-16 12:54",
      "numSpeciesAllTime": 9
    },
    "东莞下沙湿地公园 (Dongguan Xiasha Wetland Park)": {
      "locId": "L23743598",
      "locName": "东莞下沙湿地公园 (Dongguan Xiasha Wetland Park)",
      "countryCode": "CN",
      "subnational1Code": "CN-44",
      "lat": 23.0520606,
      "lng": 113.9752538,
      "latestObsDt": "2025-08-01 12:00",
      "numSpeciesAllTime": 29
    },
    "东莞人民公园 (People's Park, Dongguan)": {
      "locId": "L39980357",
      "locName": "东莞人民公园 (People's Park, Dongguan)",
      "countryCode": "CN",
      "subnational1Code": "CN-44",
      "lat": 23.0396532,
      "lng": 113.7594581,
      "latestObsDt": "2025-04-05 12:05",
      "numSpeciesAllTime": 5
    },
    "东莞植物园 (Dongguan Botanical Garden)": {
      "locId": "L39980365",
      "locName": "东莞植物园 (Dongguan Botanical Garden)",
      "countryCode": "CN",
      "subnational1Code": "CN-44",
      "lat": 22.967013,
      "lng": 113.7473886,
      "latestObsDt": "2025-10-21 09:47",
      "numSpeciesAllTime": 12
    },
    "东营园博园 (Dongying Garden Expo Park)": {
      "locId": "L39460029",
      "locName": "东营园博园 (Dongying Garden Expo Park)",
      "countryCode": "CN",
      "subnational1Code": "CN-37",
      "lat": 37.5018622,
      "lng": 118.6830633,
      "latestObsDt": "2025-07-28 08:55",
      "numSpeciesAllTime": 6
    },
    "东营森林乐园 (Dongying Forest Amusement Park)": {
      "locId": "L39459937",
      "locName": "东营森林乐园 (Dongying Forest Amusement Park)",
      "countryCode": "CN",
      "subnational1Code": "CN-37",
      "lat": 37.4226743,
      "lng": 118.5509519,
      "latestObsDt": "2023-10-03 14:00",
      "numSpeciesAllTime": 16
    },
    "东营植物园 (Dongying Botanical Garden)": {
      "locId": "L39459926",
      "locName": "东营植物园 (Dongying Botanical Garden)",
      "countryCode": "CN",
      "subnational1Code": "CN-37",
      "lat": 37.4184989,
      "lng": 118.6238889,
      "latestObsDt": "2024-12-27 13:30",
      "numSpeciesAllTime": 31
    },
    "东藕塘 (East Lotus Pond)": {
      "locId": "L15161283",
      "locName": "东藕塘 (East Lotus Pond)",
      "countryCode": "CN",
      "subnational1Code": "CN-33",
      "lat": 29.1227136,
      "lng": 119.721771,
      "latestObsDt": "2025-05-30 17:32",
      "numSpeciesAllTime": 24
    },
    "东西华林街大草坪 (W & E Hualin St. Lawn and Reeds)": {
      "locId": "L26971889",
      "locName": "东西华林街大草坪 (W & E Hualin St. Lawn and Reeds)",
      "countryCode": "CN",
      "subnational1Code": "CN-32",
      "lat": 31.2867437,
      "lng": 120.7163773,
      "latestObsDt": "2024-07-29 09:45",
      "numSpeciesAllTime": 47
    },
    "东西阳城 (Dong-Xi Yangcheng)": {
      "locId": "L15329046",
      "locName": "东西阳城 (Dong-Xi Yangcheng)",
      "countryCode": "CN",
      "subnational1Code": "CN-14",
      "lat": 36.6742,
      "lng": 112.3559,
      "latestObsDt": "2024-10-05 11:30",
      "numSpeciesAllTime": 58
    },
    "东郊宾馆 (Dongjiao State Guest Hotel)": {
      "locId": "L39092904",
      "locName": "东郊宾馆 (Dongjiao State Guest Hotel)",
      "countryCode": "CN",
      "subnational1Code": "CN-31",
      "lat": 31.223131,
      "lng": 121.595476,
      "latestObsDt": "2025-01-02 16:03",
      "numSpeciesAllTime": 21
    },
    "东郊森林公园北区 (Dongjiao Forest Park North)": {
      "locId": "L38450892",
      "locName": "东郊森林公园北区 (Dongjiao Forest Park North)",
      "countryCode": "CN",
      "subnational1Code": "CN-11",
      "lat": 39.9936548,
      "lng": 116.667315,
      "latestObsDt": "2025-04-16 12:42",
      "numSpeciesAllTime": 23
    },
    "东郊森林公园南区 (Dongjiao Forest Park South)": {
      "locId": "L38450896",
      "locName": "东郊森林公园南区 (Dongjiao Forest Park South)",
      "countryCode": "CN",
      "subnational1Code": "CN-11",
      "lat": 39.9799275,
      "lng": 116.6667412
    },
    "东郊湿地公园 (Dongjiao Wetland Park)": {
      "locId": "L6297340",
      "locName": "东郊湿地公园 (Dongjiao Wetland Park)",
      "countryCode": "CN",
      "subnational1Code": "CN-11",
      "lat": 40.0202267,
      "lng": 116.6476135,
      "latestObsDt": "2025-02-22 15:37",
      "numSpeciesAllTime": 134
    },
    "东部新城生态走廊 (Eastern New City Ecological Corridor)": {
      "locId": "L28231912",
      "locName": "东部新城生态走廊 (Eastern New City Ecological Corridor)",
      "countryCode": "CN",
      "subnational1Code": "CN-33",
      "lat": 29.8482252,
      "lng": 121.6199921,
      "latestObsDt": "2025-09-30 06:28",
      "numSpeciesAllTime": 17
    },
    "东里盐场滩涂 (Dongli Mudflats)": {
      "locId": "L4208687",
      "locName": "东里盐场滩涂 (Dongli Mudflats)",
      "countryCode": "CN",
      "subnational1Code": "CN-44",
      "lat": 20.8359515,
      "lng": 110.3328609,
      "latestObsDt": "2025-01-08 16:08",
      "numSpeciesAllTime": 161
    },
    "东鉴湖湿地公园 (East Jianhu Wetland Park)": {
      "locId": "L28452891",
      "locName": "东鉴湖湿地公园 (East Jianhu Wetland Park)",
      "countryCode": "CN",
      "subnational1Code": "CN-33",
      "lat": 30.0024982,
      "lng": 120.7307786,
      "latestObsDt": "2025-10-07 06:00",
      "numSpeciesAllTime": 87
    },
    "东钱湖 (Dongqian Lake)": {
      "locId": "L9025466",
      "locName": "东钱湖 (Dongqian Lake)",
      "countryCode": "CN",
      "subnational1Code": "CN-33",
      "lat": 29.7784284,
      "lng": 121.6419841,
      "latestObsDt": "2025-11-02 06:40",
      "numSpeciesAllTime": 180
    },
    "东钱湖生态龙虾园 (Dongqian Lake Crayfish Farm)": {
      "locId": "L22401473",
      "locName": "东钱湖生态龙虾园 (Dongqian Lake Crayfish Farm)",
      "countryCode": "CN",
      "subnational1Code": "CN-33",
      "lat": 29.7939284,
      "lng": 121.6855945,
      "latestObsDt": "2025-10-30 00:00",
      "numSpeciesAllTime": 72
    },
    "东阁华侨农场 (Dongge Farm)": {
      "locId": "L22296722",
      "locName": "东阁华侨农场 (Dongge Farm)",
      "countryCode": "CN",
      "subnational1Code": "CN-35",
      "lat": 25.6578133,
      "lng": 119.450655,
      "latestObsDt": "2023-09-02 07:00",
      "numSpeciesAllTime": 31
    },
    "东阳--南江水库 (Dongyang--Nanjiang Reservoir)": {
      "locId": "L28845287",
      "locName": "东阳--南江水库 (Dongyang--Nanjiang Reservoir)",
      "countryCode": "CN",
      "subnational1Code": "CN-33",
      "lat": 29.1189521,
      "lng": 120.443173,
      "latestObsDt": "2024-01-06 00:00",
      "numSpeciesAllTime": 1
    },
    "东陵公园 (Dongling Park)": {
      "locId": "L1873898",
      "locName": "东陵公园 (Dongling Park)",
      "countryCode": "CN",
      "subnational1Code": "CN-21",
      "lat": 41.8388527,
      "lng": 123.5904122,
      "latestObsDt": "2025-09-17 08:28",
      "numSpeciesAllTime": 117
    },
    "东风水库 (Dongfeng Reservoir)": {
      "locId": "L38018479",
      "locName": "东风水库 (Dongfeng Reservoir)",
      "countryCode": "CN",
      "subnational1Code": "CN-15",
      "lat": 40.9348739,
      "lng": 100.1291012
    },
    "东风西沙水库 (Dongfeng Xisha Reservoir)": {
      "locId": "L22969021",
      "locName": "东风西沙水库 (Dongfeng Xisha Reservoir)",
      "countryCode": "CN",
      "subnational1Code": "CN-31",
      "lat": 31.7061759,
      "lng": 121.2581152,
      "latestObsDt": "2024-12-18 13:29",
      "numSpeciesAllTime": 144
    },
    "丝山 (Sishan)": {
      "locId": "L26400544",
      "locName": "丝山 (Sishan)",
      "countryCode": "CN",
      "subnational1Code": "CN-37",
      "lat": 35.4967166,
      "lng": 119.5530096,
      "latestObsDt": "2025-10-26 11:07",
      "numSpeciesAllTime": 44
    },
    "两城河口湿地 (Liangcheng Estuary Wetlands)": {
      "locId": "L13760577",
      "locName": "两城河口湿地 (Liangcheng Estuary Wetlands)",
      "countryCode": "CN",
      "subnational1Code": "CN-37",
      "lat": 35.5620963,
      "lng": 119.6444377,
      "latestObsDt": "2025-10-21 09:00",
      "numSpeciesAllTime": 151
    },
    "两寺渡公园 (Liangsidu Park)": {
      "locId": "L38297545",
      "locName": "两寺渡公园 (Liangsidu Park)",
      "countryCode": "CN",
      "subnational1Code": "CN-61",
      "lat": 34.296833,
      "lng": 108.6671449,
      "latestObsDt": "2025-11-02 17:00",
      "numSpeciesAllTime": 2
    },
    "两山公园 (Liangshan Park)": {
      "locId": "L38199082",
      "locName": "两山公园 (Liangshan Park)",
      "countryCode": "CN",
      "subnational1Code": "CN-11",
      "lat": 39.9916746,
      "lng": 116.2564776,
      "latestObsDt": "2025-06-15 16:10",
      "numSpeciesAllTime": 36
    },
    "两河口村 (Lianghekou)": {
      "locId": "L38182799",
      "locName": "两河口村 (Lianghekou)",
      "countryCode": "CN",
      "subnational1Code": "CN-51",
      "lat": 30.4933504,
      "lng": 102.2983225,
      "latestObsDt": "2025-10-31 07:01",
      "numSpeciesAllTime": 102
    },
    "两河口湿地公园 (Lianghekou Wetland Park)": {
      "locId": "L38672406",
      "locName": "两河口湿地公园 (Lianghekou Wetland Park)",
      "countryCode": "CN",
      "subnational1Code": "CN-41",
      "lat": 32.0719993,
      "lng": 114.1220409
    },
    "两河城市森林公园 (Lianghe Urban Forest Park)": {
      "locId": "L38242818",
      "locName": "两河城市森林公园 (Lianghe Urban Forest Park)",
      "countryCode": "CN",
      "subnational1Code": "CN-51",
      "lat": 30.7183444,
      "lng": 103.9678987,
      "latestObsDt": "2025-04-29 16:23",
      "numSpeciesAllTime": 7
    },
    "两湖公园 (Lianghu Park)": {
      "locId": "L19469364",
      "locName": "两湖公园 (Lianghu Park)",
      "countryCode": "CN",
      "subnational1Code": "CN-33",
      "lat": 28.4621723,
      "lng": 119.9417928,
      "latestObsDt": "2025-09-24 08:05",
      "numSpeciesAllTime": 61
    },
    "严家屋--融创海滨 (Yanjiawu--Sunac Coast)": {
      "locId": "L17892738",
      "locName": "严家屋--融创海滨 (Yanjiawu--Sunac Coast)",
      "countryCode": "CN",
      "subnational1Code": "CN-33",
      "lat": 30.54024,
      "lng": 120.9813255,
      "latestObsDt": "2025-10-31 08:00",
      "numSpeciesAllTime": 225
    },
    "严家淤岛 (Yanjiayu Island)": {
      "locId": "L22178753",
      "locName": "严家淤岛 (Yanjiayu Island)",
      "countryCode": "CN",
      "subnational1Code": "CN-33",
      "lat": 28.9547752,
      "lng": 118.8586329,
      "latestObsDt": "2024-10-07 09:48",
      "numSpeciesAllTime": 67
    },
    "中关村公园 (Zhongguancun Park)": {
      "locId": "L33410950",
      "locName": "中关村公园 (Zhongguancun Park)",
      "countryCode": "CN",
      "subnational1Code": "CN-11",
      "lat": 40.0609289,
      "lng": 116.2824173,
      "latestObsDt": "2025-10-25 12:40",
      "numSpeciesAllTime": 53
    },
    "中关村软件园 (Zhongguancun Software Park)": {
      "locId": "L8095787",
      "locName": "中关村软件园 (Zhongguancun Software Park)",
      "countryCode": "CN",
      "subnational1Code": "CN-11",
      "lat": 40.0482011,
      "lng": 116.2939019,
      "latestObsDt": "2025-10-31 09:37",
      "numSpeciesAllTime": 61
    },
    "中华山森林公园 (Zhonghuashan Forest Park)": {
      "locId": "L39573322",
      "locName": "中华山森林公园 (Zhonghuashan Forest Park)",
      "countryCode": "CN",
      "subnational1Code": "CN-42",
      "lat": 31.6844107,
      "lng": 113.9477434
    },
    "中华麋鹿园 (Chinese Milu Park)": {
      "locId": "L19434988",
      "locName": "中华麋鹿园 (Chinese Milu Park)",
      "countryCode": "CN",
      "subnational1Code": "CN-32",
      "lat": 32.9855182,
      "lng": 120.8123379,
      "latestObsDt": "2025-05-31 10:30",
      "numSpeciesAllTime": 54
    },
    "中南大学 (Central South University)": {
      "locId": "L38537558",
      "locName": "中南大学 (Central South University)",
      "countryCode": "CN",
      "subnational1Code": "CN-43",
      "lat": 28.1699933,
      "lng": 112.9285549,
      "latestObsDt": "2025-05-25 15:45",
      "numSpeciesAllTime": 21
    },
    "中南林业科技大学东区 (Central South University of Forestry and Technology - East Campus)": {
      "locId": "L38537423",
      "locName": "中南林业科技大学东区 (Central South University of Forestry and Technology - East Campus)",
      "countryCode": "CN",
      "subnational1Code": "CN-43",
      "lat": 28.1328482,
      "lng": 112.9976996,
      "latestObsDt": "2025-04-14 15:25",
      "numSpeciesAllTime": 45
    },
    "中南林业科技大学西区 (Central South University of Forestry and Technology - West Campus)": {
      "locId": "L38537434",
      "locName": "中南林业科技大学西区 (Central South University of Forestry and Technology - West Campus)",
      "countryCode": "CN",
      "subnational1Code": "CN-43",
      "lat": 28.1300378,
      "lng": 112.9914054,
      "latestObsDt": "2025-06-02 08:00",
      "numSpeciesAllTime": 43
    },
    "中南财经政法大学 (Zhongnan University of Economics and Law)": {
      "locId": "L39723440",
      "locName": "中南财经政法大学 (Zhongnan University of Economics and Law)",
      "countryCode": "CN",
      "subnational1Code": "CN-42",
      "lat": 30.4754589,
      "lng": 114.3857048,
      "latestObsDt": "2025-04-20 14:18",
      "numSpeciesAllTime": 17
    },
    "中卫香山公园 (Xiangshan Park, Zhongwei)": {
      "locId": "L38059391",
      "locName": "中卫香山公园 (Xiangshan Park, Zhongwei)",
      "countryCode": "CN",
      "subnational1Code": "CN-64",
      "lat": 37.4902821,
      "lng": 105.1968245
    },
    "中和湿地公园 (Zhonghe Wetland Park)": {
      "locId": "L38243342",
      "locName": "中和湿地公园 (Zhonghe Wetland Park)",
      "countryCode": "CN",
      "subnational1Code": "CN-51",
      "lat": 30.5666877,
      "lng": 104.0978623,
      "latestObsDt": "2025-05-21 15:30",
      "numSpeciesAllTime": 10
    },
    "中国亭园 (Chinese Pavilion Park)": {
      "locId": "L40867007",
      "locName": "中国亭园 (Chinese Pavilion Park)",
      "countryCode": "CN",
      "subnational1Code": "CN-23",
      "lat": 45.7183395,
      "lng": 126.7174085,
      "latestObsDt": "2025-11-01 07:30",
      "numSpeciesAllTime": 23
    },
    "中国人民大学 (Renmin University of China)": {
      "locId": "L23509248",
      "locName": "中国人民大学 (Renmin University of China)",
      "countryCode": "CN",
      "subnational1Code": "CN-11",
      "lat": 39.9708011,
      "lng": 116.3132385,
      "latestObsDt": "2025-07-20 13:32",
      "numSpeciesAllTime": 28
    },
    "中国农业大学西校区 (China Agricultural University - West Campus)": {
      "locId": "L7517082",
      "locName": "中国农业大学西校区 (China Agricultural University - West Campus)",
      "countryCode": "CN",
      "subnational1Code": "CN-11",
      "lat": 40.02676,
      "lng": 116.2816143,
      "latestObsDt": "2025-09-17 14:16",
      "numSpeciesAllTime": 43
    },
    "中国常熟世界联合学院 (United World College Changshu China)": {
      "locId": "L16180439",
      "locName": "中国常熟世界联合学院 (United World College Changshu China)",
      "countryCode": "CN",
      "subnational1Code": "CN-32",
      "lat": 31.6062026,
      "lng": 120.7367693,
      "latestObsDt": "2025-11-02 16:16",
      "numSpeciesAllTime": 111
    },
    "中国最北点 (Northernmost Point of China)": {
      "locId": "L22434635",
      "locName": "中国最北点 (Northernmost Point of China)",
      "countryCode": "CN",
      "subnational1Code": "CN-23",
      "lat": 53.5582085,
      "lng": 123.2675114,
      "latestObsDt": "2013-06-29 12:54",
      "numSpeciesAllTime": 1
    },
    "中国石油大学克拉玛依校区 (China University of Petroleum at Karamay)": {
      "locId": "L9851797",
      "locName": "中国石油大学克拉玛依校区 (China University of Petroleum at Karamay)",
      "countryCode": "CN",
      "subnational1Code": "CN-65",
      "lat": 45.5506805,
      "lng": 84.936777,
      "latestObsDt": "2025-10-07 09:00",
      "numSpeciesAllTime": 123
    },
    "中国科学技术大学 (University of Science and Technology of China)": {
      "locId": "L16403114",
      "locName": "中国科学技术大学 (University of Science and Technology of China)",
      "countryCode": "CN",
      "subnational1Code": "CN-34",
      "lat": 31.8395291,
      "lng": 117.2689881,
      "latestObsDt": "2025-07-23 17:30",
      "numSpeciesAllTime": 91
    },
    "中国科学技术大学西校区 (USTC - West Campus)": {
      "locId": "L38671523",
      "locName": "中国科学技术大学西校区 (USTC - West Campus)",
      "countryCode": "CN",
      "subnational1Code": "CN-34",
      "lat": 31.838922,
      "lng": 117.2559355
    },
    "中国科学院大学 (University of Chinese Academy of Sciences)": {
      "locId": "L5817879",
      "locName": "中国科学院大学 (University of Chinese Academy of Sciences)",
      "countryCode": "CN",
      "subnational1Code": "CN-11",
      "lat": 40.4059413,
      "lng": 116.680749,
      "latestObsDt": "2025-09-26 07:00",
      "numSpeciesAllTime": 160
    },
    "中国科学院大学玉泉路校区 (University of Chinese Academy of Sciences - Yuquan Rd Campus)": {
      "locId": "L36330129",
      "locName": "中国科学院大学玉泉路校区 (University of Chinese Academy of Sciences - Yuquan Rd Campus)",
      "countryCode": "CN",
      "subnational1Code": "CN-11",
      "lat": 39.9120785,
      "lng": 116.2513194,
      "latestObsDt": "2025-05-14 07:53",
      "numSpeciesAllTime": 21
    },
    "中国科学院武汉植物园 (Wuhan Botanical Garden CAS)": {
      "locId": "L4919951",
      "locName": "中国科学院武汉植物园 (Wuhan Botanical Garden CAS)",
      "countryCode": "CN",
      "subnational1Code": "CN-42",
      "lat": 30.545951,
      "lng": 114.4183478,
      "latestObsDt": "2025-10-16 09:16",
      "numSpeciesAllTime": 117
    },
    "中国美院象山中心校区 (China Academy of Art - Xiangshan Campus)": {
      "locId": "L5282984",
      "locName": "中国美院象山中心校区 (China Academy of Art - Xiangshan Campus)",
      "countryCode": "CN",
      "subnational1Code": "CN-33",
      "lat": 30.153717,
      "lng": 120.078467,
      "latestObsDt": "2025-06-11 08:51",
      "numSpeciesAllTime": 64
    },
    "中国茶海景区 (China Chahai Scenic Area)": {
      "locId": "L14011047",
      "locName": "中国茶海景区 (China Chahai Scenic Area)",
      "countryCode": "CN",
      "subnational1Code": "CN-52",
      "lat": 27.8847706,
      "lng": 107.6257181,
      "latestObsDt": "2017-08-07 09:00",
      "numSpeciesAllTime": 11
    },
    "中国药科大学江宁校区 (China Pharmaceutical University - Jiangning Campus)": {
      "locId": "L29767506",
      "locName": "中国药科大学江宁校区 (China Pharmaceutical University - Jiangning Campus)",
      "countryCode": "CN",
      "subnational1Code": "CN-32",
      "lat": 31.902363,
      "lng": 118.9170327,
      "latestObsDt": "2025-09-13 11:29",
      "numSpeciesAllTime": 73
    },
    "中国金钱松森林公园 (Golden Larch Forest Park)": {
      "locId": "L14722474",
      "locName": "中国金钱松森林公园 (Golden Larch Forest Park)",
      "countryCode": "CN",
      "subnational1Code": "CN-33",
      "lat": 30.4185982,
      "lng": 119.6392667,
      "latestObsDt": "2025-07-18 00:00",
      "numSpeciesAllTime": 18
    },
    "中坞公园 (Zhongwu Park)": {
      "locId": "L38199052",
      "locName": "中坞公园 (Zhongwu Park)",
      "countryCode": "CN",
      "subnational1Code": "CN-11",
      "lat": 39.9809313,
      "lng": 116.2609476,
      "latestObsDt": "2025-07-15 13:45",
      "numSpeciesAllTime": 30
    },
    "中坡国家森林公园 (Zhongpo National Forest Park)": {
      "locId": "L13556506",
      "locName": "中坡国家森林公园 (Zhongpo National Forest Park)",
      "countryCode": "CN",
      "subnational1Code": "CN-43",
      "lat": 27.5764882,
      "lng": 109.9491839,
      "latestObsDt": "2021-02-11 10:50",
      "numSpeciesAllTime": 13
    },
    "中央公园 (SIP Central Park)": {
      "locId": "L53550964",
      "locName": "中央公园 (SIP Central Park)",
      "countryCode": "CN",
      "subnational1Code": "CN-32",
      "lat": 31.3227372,
      "lng": 120.7235563,
      "latestObsDt": "2024-12-01 15:40",
      "numSpeciesAllTime": 13
    },
    "中央山公园 (Zhongyangshan Park)": {
      "locId": "L22442442",
      "locName": "中央山公园 (Zhongyangshan Park)",
      "countryCode": "CN",
      "subnational1Code": "CN-33",
      "lat": 28.5793112,
      "lng": 121.345991,
      "latestObsDt": "2025-05-16 13:16",
      "numSpeciesAllTime": 6
    },
    "中山公园 (Zhongshan Park)": {
      "locId": "L5245850",
      "locName": "中山公园 (Zhongshan Park)",
      "countryCode": "CN",
      "subnational1Code": "CN-31",
      "lat": 31.221888,
      "lng": 121.420066,
      "latestObsDt": "2025-11-01 15:23",
      "numSpeciesAllTime": 93
    },
    "中山大学东校园 (Sun Yat-sen University - East Campus)": {
      "locId": "L40088571",
      "locName": "中山大学东校园 (Sun Yat-sen University - East Campus)",
      "countryCode": "CN",
      "subnational1Code": "CN-44",
      "lat": 23.0671479,
      "lng": 113.3899523,
      "latestObsDt": "2025-03-16 16:40",
      "numSpeciesAllTime": 8
    },
    "中山大学南校园 (Sun Yat-sen University - South Campus)": {
      "locId": "L2354294",
      "locName": "中山大学南校园 (Sun Yat-sen University - South Campus)",
      "countryCode": "CN",
      "subnational1Code": "CN-44",
      "lat": 23.0963458,
      "lng": 113.2985741,
      "latestObsDt": "2025-10-30 12:00",
      "numSpeciesAllTime": 182
    },
    "中山大学深圳校区 (Sun Yat-sen University - Shenzhen Campus)": {
      "locId": "L30114695",
      "locName": "中山大学深圳校区 (Sun Yat-sen University - Shenzhen Campus)",
      "countryCode": "CN",
      "subnational1Code": "CN-44",
      "lat": 22.8039589,
      "lng": 113.9495112,
      "latestObsDt": "2025-11-01 14:00",
      "numSpeciesAllTime": 106
    },
    "中山大学深圳校区二期 (Sun Yat-sen University - Shenzhen Campus Area II [research farm])": {
      "locId": "L38652861",
      "locName": "中山大学深圳校区二期 (Sun Yat-sen University - Shenzhen Campus Area II [research farm])",
      "countryCode": "CN",
      "subnational1Code": "CN-44",
      "lat": 22.8069942,
      "lng": 113.9514284,
      "latestObsDt": "2025-10-30 07:23",
      "numSpeciesAllTime": 84
    },
    "中山大学珠海校园 (Sun Yat-sen University - Zhuhai Campus)": {
      "locId": "L7070556",
      "locName": "中山大学珠海校园 (Sun Yat-sen University - Zhuhai Campus)",
      "countryCode": "CN",
      "subnational1Code": "CN-44",
      "lat": 22.3413037,
      "lng": 113.5897708,
      "latestObsDt": "2025-06-26 15:00",
      "numSpeciesAllTime": 86
    },
    "中山市树木园 (Zhongshan Arboretum)": {
      "locId": "L6012179",
      "locName": "中山市树木园 (Zhongshan Arboretum)",
      "countryCode": "CN",
      "subnational1Code": "CN-44",
      "lat": 22.4869662,
      "lng": 113.3725789,
      "latestObsDt": "2024-07-16 09:26",
      "numSpeciesAllTime": 41
    },
    "中山纪念堂 (Dr. Sun Yat-Sen's Memorial Hall)": {
      "locId": "L20493095",
      "locName": "中山纪念堂 (Dr. Sun Yat-Sen's Memorial Hall)",
      "countryCode": "CN",
      "subnational1Code": "CN-44",
      "lat": 23.1320541,
      "lng": 113.2644107,
      "latestObsDt": "2025-02-22 09:00",
      "numSpeciesAllTime": 19
    },
    "中山陵 (Dr. Sun Yat-sen's Mausoleum)": {
      "locId": "L37874977",
      "locName": "中山陵 (Dr. Sun Yat-sen's Mausoleum)",
      "countryCode": "CN",
      "subnational1Code": "CN-32",
      "lat": 32.0599287,
      "lng": 118.8535702,
      "latestObsDt": "2025-05-28 10:50",
      "numSpeciesAllTime": 49
    },
    "中山陵苗圃场 (Dr. Sun Yat-sen's Mausoleum--The Nursery)": {
      "locId": "L39865076",
      "locName": "中山陵苗圃场 (Dr. Sun Yat-sen's Mausoleum--The Nursery)",
      "countryCode": "CN",
      "subnational1Code": "CN-32",
      "lat": 32.0505884,
      "lng": 118.8735673,
      "latestObsDt": "2025-10-25 18:00",
      "numSpeciesAllTime": 62
    },
    "中心公园 (Central Park, Tianjin)": {
      "locId": "L29886042",
      "locName": "中心公园 (Central Park, Tianjin)",
      "countryCode": "CN",
      "subnational1Code": "CN-12",
      "lat": 39.1234887,
      "lng": 117.1986165,
      "latestObsDt": "2025-10-13 13:10",
      "numSpeciesAllTime": 8
    },
    "中房洲 (Zhongfang Shoal)": {
      "locId": "L28756563",
      "locName": "中房洲 (Zhongfang Shoal)",
      "countryCode": "CN",
      "subnational1Code": "CN-35",
      "lat": 26.110555,
      "lng": 119.200448,
      "latestObsDt": "2024-01-13 12:39",
      "numSpeciesAllTime": 36
    },
    "中新天津生态城 (Sino-Singapore Tianjin Eco-City)": {
      "locId": "L32490259",
      "locName": "中新天津生态城 (Sino-Singapore Tianjin Eco-City)",
      "countryCode": "CN",
      "subnational1Code": "CN-12",
      "lat": 39.1211061,
      "lng": 117.7513269,
      "latestObsDt": "2024-02-02 10:20",
      "numSpeciesAllTime": 81
    },
    "中洲公园 (Zhongzhou Park)": {
      "locId": "L19181936",
      "locName": "中洲公园 (Zhongzhou Park)",
      "countryCode": "CN",
      "subnational1Code": "CN-33",
      "lat": 29.2051377,
      "lng": 119.4636137,
      "latestObsDt": "2024-12-14 00:00",
      "numSpeciesAllTime": 32
    },
    "中海公园 (Zhonghai Park)": {
      "locId": "L38786402",
      "locName": "中海公园 (Zhonghai Park)",
      "countryCode": "CN",
      "subnational1Code": "CN-37",
      "lat": 37.3956925,
      "lng": 117.9512309,
      "latestObsDt": "2025-10-21 09:01",
      "numSpeciesAllTime": 70
    },
    "中溪村 (Zhongxi Village)": {
      "locId": "L24024938",
      "locName": "中溪村 (Zhongxi Village)",
      "countryCode": "CN",
      "subnational1Code": "CN-35",
      "lat": 26.4934718,
      "lng": 116.9846058,
      "latestObsDt": "2025-10-02 21:16",
      "numSpeciesAllTime": 110
    },
    "中澳友谊花园 (Sino-Australian Friendship Garden)": {
      "locId": "L39980910",
      "locName": "中澳友谊花园 (Sino-Australian Friendship Garden)",
      "countryCode": "CN",
      "subnational1Code": "CN-44",
      "lat": 21.2440219,
      "lng": 110.4092317
    },
    "中牟雁鸣湖 (Yanming Lake, Zhongmu)": {
      "locId": "L4258254",
      "locName": "中牟雁鸣湖 (Yanming Lake, Zhongmu)",
      "countryCode": "CN",
      "subnational1Code": "CN-41",
      "lat": 34.8725527,
      "lng": 114.0396738,
      "latestObsDt": "2024-08-18 12:42",
      "numSpeciesAllTime": 91
    },
    "中牟黄河滩 (Zhongmu Yellow River Flats)": {
      "locId": "L9932275",
      "locName": "中牟黄河滩 (Zhongmu Yellow River Flats)",
      "countryCode": "CN",
      "subnational1Code": "CN-41",
      "lat": 34.943555,
      "lng": 114.0524883,
      "latestObsDt": "2023-01-01 14:39",
      "numSpeciesAllTime": 70
    },
    "中科院华南植物园 (South China Botanical Garden)": {
      "locId": "L4672350",
      "locName": "中科院华南植物园 (South China Botanical Garden)",
      "countryCode": "CN",
      "subnational1Code": "CN-44",
      "lat": 23.1822035,
      "lng": 113.3688319,
      "latestObsDt": "2025-10-19 06:37",
      "numSpeciesAllTime": 160
    },
    "中科院吐鲁番沙漠植物园 (Turpan Desert Botanical Garden)": {
      "locId": "L37988443",
      "locName": "中科院吐鲁番沙漠植物园 (Turpan Desert Botanical Garden)",
      "countryCode": "CN",
      "subnational1Code": "CN-65",
      "lat": 42.8564495,
      "lng": 89.1925721
    },
    "中科院桂林植物园 (Guangxi Institute of Botany, CAS)": {
      "locId": "L38428792",
      "locName": "中科院桂林植物园 (Guangxi Institute of Botany, CAS)",
      "countryCode": "CN",
      "subnational1Code": "CN-45",
      "lat": 25.0733636,
      "lng": 110.3029595,
      "latestObsDt": "2025-01-06 10:55",
      "numSpeciesAllTime": 7
    },
    "中科院植物研究所 (Institute of Botany, CAS)": {
      "locId": "L7049829",
      "locName": "中科院植物研究所 (Institute of Botany, CAS)",
      "countryCode": "CN",
      "subnational1Code": "CN-11",
      "lat": 39.9893644,
      "lng": 116.2157929,
      "latestObsDt": "2025-10-15 14:00",
      "numSpeciesAllTime": 73
    },
    "中科院西双版纳热带植物园 (Xishuangbanna Tropical Botanical Garden)": {
      "locId": "L2356004",
      "locName": "中科院西双版纳热带植物园 (Xishuangbanna Tropical Botanical Garden)",
      "countryCode": "CN",
      "subnational1Code": "CN-53",
      "lat": 21.9259066,
      "lng": 101.2633054,
      "latestObsDt": "2025-11-01 14:48",
      "numSpeciesAllTime": 357
    },