{
  "203高地": {
    "locId": "L38396480",
    "locName": "203高地",
    "countryCode": "CN",
    "subnational1Code": "CN-21",
    "lat": 38.8290433,
    "lng": 121.1980701
  },
  "640台地 (Platform 640)": {
    "locId": "L25047407",
    "locName": "640台地 (Platform 640)",
    "countryCode": "CN",
    "subnational1Code": "CN-65",
    "lat": 47.3715161,
    "lng": 88.2454055,
    "latestObsDt": "2024-07-15 19:00",
    "numSpeciesAllTime": 55
  },
  "Antelope Valley": {
    "locId": "L5901169",
    "locName": "Antelope Valley",
    "countryCode": "CN",
    "subnational1Code": "CN-63",
    "lat": 35.0724067,
    "lng": 94.1909433,
    "latestObsDt": "2022-08-13 10:00",
    "numSpeciesAllTime": 29
  },
  "G217-胜利路湿地 (G217 & Shengli Rd Wetlands)": {
    "locId": "L6147484",
    "locName": "G217-胜利路湿地 (G217 & Shengli Rd Wetlands)",
    "countryCode": "CN",
    "subnational1Code": "CN-65",
    "lat": 45.557195,
    "lng": 84.954688,
    "latestObsDt": "2024-12-28 12:57",
    "numSpeciesAllTime": 52
  },
  "Mai Po Boardwalk (North)": {
    "locId": "L8913123",
    "locName": "Mai Po Boardwalk (North)",
    "countryCode": "CN",
    "subnational1Code": "CN-44",
    "lat": 22.4991267,
    "lng": 114.0275532,
    "latestObsDt": "2024-09-29 12:08",
    "numSpeciesAllTime": 131
  },
  "Memo Wetlands": {
    "locId": "L4774090",
    "locName": "Memo Wetlands",
    "countryCode": "CN",
    "subnational1Code": "CN-54",
    "lat": 28.599831,
    "lng": 86.670571,
    "latestObsDt": "2024-11-15 16:01",
    "numSpeciesAllTime": 32
  },
  "Universidade de Macau 澳門大學": {
    "locId": "L35659792",
    "locName": "Universidade de Macau 澳門大學",
    "countryCode": "CN",
    "subnational1Code": "CN-44",
    "lat": 22.1290707,
    "lng": 113.5442313
  },
  "㹧茶湖 (Angsang Lake)": {
    "locId": "L22357522",
    "locName": "㹧茶湖 (Angsang Lake)",
    "countryCode": "CN",
    "subnational1Code": "CN-33",
    "lat": 30.085368,
    "lng": 120.566715,
    "latestObsDt": "2025-01-31 12:00",
    "numSpeciesAllTime": 45
  },
  "一江山岛 (Yijiangshan Islands)": {
    "locId": "L37824675",
    "locName": "一江山岛 (Yijiangshan Islands)",
    "countryCode": "CN",
    "subnational1Code": "CN-33",
    "lat": 28.6046253,
    "lng": 121.8152092
  },
  "丁塘河湿地公园 (Dingtanghe Wetland Park)": {
    "locId": "L39904433",
    "locName": "丁塘河湿地公园 (Dingtanghe Wetland Park)",
    "countryCode": "CN",
    "subnational1Code": "CN-32",
    "lat": 31.7562328,
    "lng": 120.0337685
  },
  "丁字镇农田 (Dingzi Fields)": {
    "locId": "L26482633",
    "locName": "丁字镇农田 (Dingzi Fields)",
    "countryCode": "CN",
    "subnational1Code": "CN-43",
    "lat": 28.3575178,
    "lng": 112.9216119,
    "latestObsDt": "2024-08-01 16:36",
    "numSpeciesAllTime": 67
  },
  "丁香公园 (Dingxiang Park)": {
    "locId": "L36105174",
    "locName": "丁香公园 (Dingxiang Park)",
    "countryCode": "CN",
    "subnational1Code": "CN-23",
    "lat": 45.7425202,
    "lng": 126.5661162,
    "latestObsDt": "2024-11-11 07:10",
    "numSpeciesAllTime": 18
  },
  "丁香湖 (Dingxiang Lake)": {
    "locId": "L11914925",
    "locName": "丁香湖 (Dingxiang Lake)",
    "countryCode": "CN",
    "subnational1Code": "CN-21",
    "lat": 41.8561241,
    "lng": 123.336542,
    "latestObsDt": "2024-10-15 00:00",
    "numSpeciesAllTime": 67
  },
  "丁香生态公园 (Dingxiang Eco-Park)": {
    "locId": "L38018518",
    "locName": "丁香生态公园 (Dingxiang Eco-Park)",
    "countryCode": "CN",
    "subnational1Code": "CN-15",
    "lat": 38.8401141,
    "lng": 105.7413896
  },
  "七仙岭温泉国家森林公园 (Qixianling National Forest Park)": {
    "locId": "L19278859",
    "locName": "七仙岭温泉国家森林公园 (Qixianling National Forest Park)",
    "countryCode": "CN",
    "subnational1Code": "CN-46",
    "lat": 18.6936451,
    "lng": 109.709432,
    "latestObsDt": "2022-01-27 08:00",
    "numSpeciesAllTime": 19
  },
  "七农场水田 (Paddy Fields at No.7 Farm)": {
    "locId": "L5693979",
    "locName": "七农场水田 (Paddy Fields at No.7 Farm)",
    "countryCode": "CN",
    "subnational1Code": "CN-13",
    "lat": 39.2079372,
    "lng": 118.3024864,
    "latestObsDt": "2020-05-17 08:36",
    "numSpeciesAllTime": 182
  },
  "七大队 (No.7 Brigade)": {
    "locId": "L15497802",
    "locName": "七大队 (No.7 Brigade)",
    "countryCode": "CN",
    "subnational1Code": "CN-63",
    "lat": 37.4803593,
    "lng": 101.5356898,
    "latestObsDt": "2024-08-02 19:57",
    "numSpeciesAllTime": 65
  },
  "七星公园 (Qixing Park)": {
    "locId": "L36839808",
    "locName": "七星公园 (Qixing Park)",
    "countryCode": "CN",
    "subnational1Code": "CN-45",
    "lat": 25.2717189,
    "lng": 110.3120393,
    "latestObsDt": "2025-01-27 13:30",
    "numSpeciesAllTime": 12
  },
  "七星峰森林公园 (Qixingfeng Forest Park)": {
    "locId": "L25824042",
    "locName": "七星峰森林公园 (Qixingfeng Forest Park)",
    "countryCode": "CN",
    "subnational1Code": "CN-23",
    "lat": 46.7074995,
    "lng": 130.9582329,
    "latestObsDt": "2023-07-07 11:00",
    "numSpeciesAllTime": 1
  },
  "七星河自然保护区 (Qixing River NNR)": {
    "locId": "L5875534",
    "locName": "七星河自然保护区 (Qixing River NNR)",
    "countryCode": "CN",
    "subnational1Code": "CN-23",
    "lat": 46.712865,
    "lng": 132.134921,
    "latestObsDt": "2017-04-25 06:00",
    "numSpeciesAllTime": 113
  },
  "七星湖公园 (Qixinghu Park)": {
    "locId": "L17560456",
    "locName": "七星湖公园 (Qixinghu Park)",
    "countryCode": "CN",
    "subnational1Code": "CN-22",
    "lat": 43.5022139,
    "lng": 123.4717977,
    "latestObsDt": "2024-06-28 06:40",
    "numSpeciesAllTime": 91
  },
  "七星湖湿地公园 (Qixing Lakes Wetland Park)": {
    "locId": "L12171078",
    "locName": "七星湖湿地公园 (Qixing Lakes Wetland Park)",
    "countryCode": "CN",
    "subnational1Code": "CN-13",
    "lat": 42.43405,
    "lng": 117.247883,
    "latestObsDt": "2023-06-06 16:19",
    "numSpeciesAllTime": 80
  },
  "七星礁 (Qixingjiao)": {
    "locId": "L21981661",
    "locName": "七星礁 (Qixingjiao)",
    "countryCode": "CN",
    "subnational1Code": "CN-35",
    "lat": 24.5586349,
    "lng": 118.2842936,
    "latestObsDt": "2025-01-12 09:31",
    "numSpeciesAllTime": 122
  },
  "七格--猪头角坝 (Qige--Zhutoujiao Embankment)": {
    "locId": "L15911007",
    "locName": "七格--猪头角坝 (Qige--Zhutoujiao Embankment)",
    "countryCode": "CN",
    "subnational1Code": "CN-33",
    "lat": 30.2858382,
    "lng": 120.3145516,
    "latestObsDt": "2022-03-22 00:00",
    "numSpeciesAllTime": 29
  },
  "七桥瓮生态湿地公园 (Qiqiaoweng Wetland Park)": {
    "locId": "L39857371",
    "locName": "七桥瓮生态湿地公园 (Qiqiaoweng Wetland Park)",
    "countryCode": "CN",
    "subnational1Code": "CN-32",
    "lat": 32.0076326,
    "lng": 118.8345216
  },
  "七贤岭森林公园 (Qixianling Forest Park)": {
    "locId": "L38396297",
    "locName": "七贤岭森林公园 (Qixianling Forest Park)",
    "countryCode": "CN",
    "subnational1Code": "CN-21",
    "lat": 38.8455933,
    "lng": 121.5232413,
    "latestObsDt": "2025-01-30 08:44",
    "numSpeciesAllTime": 17
  },
  "七都岛 (Qidu Island [General Area])": {
    "locId": "L3996108",
    "locName": "七都岛 (Qidu Island [General Area])",
    "countryCode": "CN",
    "subnational1Code": "CN-33",
    "lat": 27.9820733,
    "lng": 120.7871246,
    "latestObsDt": "2025-02-05 14:21",
    "numSpeciesAllTime": 133
  },
  "七里坪 (Qiliping)": {
    "locId": "L17973972",
    "locName": "七里坪 (Qiliping)",
    "countryCode": "CN",
    "subnational1Code": "CN-42",
    "lat": 31.4629363,
    "lng": 114.6549096,
    "latestObsDt": "2024-06-09 11:49",
    "numSpeciesAllTime": 75
  },
  "七里海湿地 (Qilihai Wetlands)": {
    "locId": "L30315011",
    "locName": "七里海湿地 (Qilihai Wetlands)",
    "countryCode": "CN",
    "subnational1Code": "CN-12",
    "lat": 39.2958058,
    "lng": 117.5525906,
    "latestObsDt": "2024-05-03 16:39",
    "numSpeciesAllTime": 113
  },
  "七里海湿地--东海 (Qilihai Wetlands East)": {
    "locId": "L32413949",
    "locName": "七里海湿地--东海 (Qilihai Wetlands East)",
    "countryCode": "CN",
    "subnational1Code": "CN-12",
    "lat": 39.2985556,
    "lng": 117.5906111,
    "latestObsDt": "2022-01-27 09:10",
    "numSpeciesAllTime": 207
  },
  "七里海湿地--潮白新河七里海段 (Qilihai Wetlands--New Chaobai River)": {
    "locId": "L32414061",
    "locName": "七里海湿地--潮白新河七里海段 (Qilihai Wetlands--New Chaobai River)",
    "countryCode": "CN",
    "subnational1Code": "CN-12",
    "lat": 39.2822451,
    "lng": 117.5670222,
    "latestObsDt": "2022-01-27 09:10",
    "numSpeciesAllTime": 124
  },
  "七里海湿地--西海 (Qilihai Wetlands West)": {
    "locId": "L32413950",
    "locName": "七里海湿地--西海 (Qilihai Wetlands West)",
    "countryCode": "CN",
    "subnational1Code": "CN-12",
    "lat": 39.2981864,
    "lng": 117.5045749,
    "latestObsDt": "2022-01-27 09:10",
    "numSpeciesAllTime": 190
  },
  "七里海潟湖 (Qilihai Lagoon Wetlands)": {
    "locId": "L25346246",
    "locName": "七里海潟湖 (Qilihai Lagoon Wetlands)",
    "countryCode": "CN",
    "subnational1Code": "CN-13",
    "lat": 39.5906175,
    "lng": 119.2724775,
    "latestObsDt": "2024-10-20 10:58",
    "numSpeciesAllTime": 59
  },
  "万丰公园 (Wanfeng Park)": {
    "locId": "L11383271",
    "locName": "万丰公园 (Wanfeng Park)",
    "countryCode": "CN",
    "subnational1Code": "CN-11",
    "lat": 39.8828658,
    "lng": 116.2912418,
    "latestObsDt": "2023-05-05 05:16",
    "numSpeciesAllTime": 35
  },
  "万亩鱼塘 (The Wanmu Fish Ponds)": {
    "locId": "L32227907",
    "locName": "万亩鱼塘 (The Wanmu Fish Ponds)",
    "countryCode": "CN",
    "subnational1Code": "CN-12",
    "lat": 38.7887624,
    "lng": 117.4247183,
    "latestObsDt": "2025-02-16 07:41",
    "numSpeciesAllTime": 134
  },
  "万宁东澳田野 (Wanning Dong'ao Countryside)": {
    "locId": "L38890144",
    "locName": "万宁东澳田野 (Wanning Dong'ao Countryside)",
    "countryCode": "CN",
    "subnational1Code": "CN-46",
    "lat": 18.7091549,
    "lng": 110.3952884,
    "latestObsDt": "2025-02-05 18:11",
    "numSpeciesAllTime": 45
  },
  "万宝海滩 (Wanbao Coast)": {
    "locId": "L26002079",
    "locName": "万宝海滩 (Wanbao Coast)",
    "countryCode": "CN",
    "subnational1Code": "CN-37",
    "lat": 35.5816762,
    "lng": 119.6633044,
    "latestObsDt": "2025-02-17 09:59",
    "numSpeciesAllTime": 78
  },
  "万尾金滩 (Wanwei Golden Beach)": {
    "locId": "L11449944",
    "locName": "万尾金滩 (Wanwei Golden Beach)",
    "countryCode": "CN",
    "subnational1Code": "CN-45",
    "lat": 21.5244597,
    "lng": 108.1672899,
    "latestObsDt": "2023-01-28 09:25",
    "numSpeciesAllTime": 79
  },
  "万平口海滨 (Wanpingkou Coast)": {
    "locId": "L26347978",
    "locName": "万平口海滨 (Wanpingkou Coast)",
    "countryCode": "CN",
    "subnational1Code": "CN-37",
    "lat": 35.4313319,
    "lng": 119.5696565,
    "latestObsDt": "2024-12-28 07:00",
    "numSpeciesAllTime": 130
  },
  "万平口澙湖 (Wanpingkou Lagoon)": {
    "locId": "L27929153",
    "locName": "万平口澙湖 (Wanpingkou Lagoon)",
    "countryCode": "CN",
    "subnational1Code": "CN-37",
    "lat": 35.4227772,
    "lng": 119.5578118,
    "latestObsDt": "2025-01-25 13:10",
    "numSpeciesAllTime": 36
  },
  "万木林省级自然保护区 (Wanmulin PNR)": {
    "locId": "L23976482",
    "locName": "万木林省级自然保护区 (Wanmulin PNR)",
    "countryCode": "CN",
    "subnational1Code": "CN-35",
    "lat": 27.0445342,
    "lng": 118.1579274,
    "latestObsDt": "2023-05-01 12:44",
    "numSpeciesAllTime": 13
  },
  "万松山公园 (Wansongshan Park)": {
    "locId": "L22314785",
    "locName": "万松山公园 (Wansongshan Park)",
    "countryCode": "CN",
    "subnational1Code": "CN-33",
    "lat": 27.7899986,
    "lng": 120.6456936,
    "latestObsDt": "2025-01-29 14:43",
    "numSpeciesAllTime": 26
  },
  "万柳塘公园 (Wanliutang Park)": {
    "locId": "L38650400",
    "locName": "万柳塘公园 (Wanliutang Park)",
    "countryCode": "CN",
    "subnational1Code": "CN-21",
    "lat": 41.779704,
    "lng": 123.4650576
  },
  "万泉公园 (Wanquan Park)": {
    "locId": "L12847179",
    "locName": "万泉公园 (Wanquan Park)",
    "countryCode": "CN",
    "subnational1Code": "CN-21",
    "lat": 41.788601,
    "lng": 123.472569,
    "latestObsDt": "2024-05-01 08:31",
    "numSpeciesAllTime": 55
  },
  "万洋洲湿地公园 (Wanyangzhou Wetland Park)": {
    "locId": "L39581516",
    "locName": "万洋洲湿地公园 (Wanyangzhou Wetland Park)",
    "countryCode": "CN",
    "subnational1Code": "CN-42",
    "lat": 31.7292316,
    "lng": 112.2620084
  },
  "万盘尖 (Wanpanjian Peak)": {
    "locId": "L12549728",
    "locName": "万盘尖 (Wanpanjian Peak)",
    "countryCode": "CN",
    "subnational1Code": "CN-33",
    "lat": 27.7192982,
    "lng": 120.5094939,
    "latestObsDt": "2024-10-09 00:00",
    "numSpeciesAllTime": 27
  },
  "万绿园 (Evergreen Garden)": {
    "locId": "L5844250",
    "locName": "万绿园 (Evergreen Garden)",
    "countryCode": "CN",
    "subnational1Code": "CN-46",
    "lat": 20.0347064,
    "lng": 110.3135834,
    "latestObsDt": "2025-02-14 13:59",
    "numSpeciesAllTime": 63
  },
  "万象山公园 (Wanxiangshan Park)": {
    "locId": "L11818093",
    "locName": "万象山公园 (Wanxiangshan Park)",
    "countryCode": "CN",
    "subnational1Code": "CN-33",
    "lat": 28.4477222,
    "lng": 119.9029688,
    "latestObsDt": "2022-04-10 00:00",
    "numSpeciesAllTime": 5
  },
  "三一八公园 (Mar 18th Park)": {
    "locId": "L38341059",
    "locName": "三一八公园 (Mar 18th Park)",
    "countryCode": "CN",
    "subnational1Code": "CN-21",
    "lat": 41.9999326,
    "lng": 121.6426107
  },
  "三丫港 (Sanya Bay)": {
    "locId": "L4476126",
    "locName": "三丫港 (Sanya Bay)",
    "countryCode": "CN",
    "subnational1Code": "CN-44",
    "lat": 21.7957655,
    "lng": 112.1987772,
    "latestObsDt": "2016-10-21 10:34",
    "numSpeciesAllTime": 46
  },
  "三亚情人湾 (Lover’s Bay, Sanya)": {
    "locId": "L22483818",
    "locName": "三亚情人湾 (Lover’s Bay, Sanya)",
    "countryCode": "CN",
    "subnational1Code": "CN-46",
    "lat": 18.212837,
    "lng": 109.489944,
    "latestObsDt": "2025-02-08 07:42",
    "numSpeciesAllTime": 41
  },
  "三亚红树林公园 (Sanya Mangrove Park)": {
    "locId": "L22485742",
    "locName": "三亚红树林公园 (Sanya Mangrove Park)",
    "countryCode": "CN",
    "subnational1Code": "CN-46",
    "lat": 18.2564145,
    "lng": 109.5075177,
    "latestObsDt": "2024-05-24 17:26",
    "numSpeciesAllTime": 44
  },
  "三亚西岛 (West Island, Sanya)": {
    "locId": "L37636086",
    "locName": "三亚西岛 (West Island, Sanya)",
    "countryCode": "CN",
    "subnational1Code": "CN-46",
    "lat": 18.2346776,
    "lng": 109.3749853,
    "latestObsDt": "2025-02-07 08:10",
    "numSpeciesAllTime": 16
  },
  "三凌集团西边湿地": {
    "locId": "L39817309",
    "locName": "三凌集团西边湿地",
    "countryCode": "CN",
    "subnational1Code": "CN-44",
    "lat": 23.2512257,
    "lng": 116.7006401
  },
  "三利水库 (Sanli Reservoir)": {
    "locId": "L38426036",
    "locName": "三利水库 (Sanli Reservoir)",
    "countryCode": "CN",
    "subnational1Code": "CN-45",
    "lat": 23.4246666,
    "lng": 109.2428583
  },
  "三台子湿地 (Santaizi Wetlands)": {
    "locId": "L38395982",
    "locName": "三台子湿地 (Santaizi Wetlands)",
    "countryCode": "CN",
    "subnational1Code": "CN-21",
    "lat": 39.601052,
    "lng": 121.5698216
  },
  "三台山森林公园 (Santaishan Forest Park)": {
    "locId": "L39840812",
    "locName": "三台山森林公园 (Santaishan Forest Park)",
    "countryCode": "CN",
    "subnational1Code": "CN-32",
    "lat": 34.0427066,
    "lng": 118.318663
  },
  "三圣花乡梅香湖 (Sansheng Huaxiang--Meixiang Lake)": {
    "locId": "L1616787",
    "locName": "三圣花乡梅香湖 (Sansheng Huaxiang--Meixiang Lake)",
    "countryCode": "CN",
    "subnational1Code": "CN-51",
    "lat": 30.5865432,
    "lng": 104.1370054,
    "latestObsDt": "2021-03-13 02:17",
    "numSpeciesAllTime": 38
  },
  "三圣花乡荷塘月色 (Sansheng Huaxiang--Lotus Pools)": {
    "locId": "L20112528",
    "locName": "三圣花乡荷塘月色 (Sansheng Huaxiang--Lotus Pools)",
    "countryCode": "CN",
    "subnational1Code": "CN-51",
    "lat": 30.5681733,
    "lng": 104.1567743,
    "latestObsDt": "2024-11-10 14:29",
    "numSpeciesAllTime": 63
  },
  "三垟湿地公园 (Sanyang Wetland Park)": {
    "locId": "L10840562",
    "locName": "三垟湿地公园 (Sanyang Wetland Park)",
    "countryCode": "CN",
    "subnational1Code": "CN-33",
    "lat": 27.9609799,
    "lng": 120.713596,
    "latestObsDt": "2025-02-04 08:18",
    "numSpeciesAllTime": 119
  },
  "三墩村湿地 (Sandun Wetlands)": {
    "locId": "L22249871",
    "locName": "三墩村湿地 (Sandun Wetlands)",
    "countryCode": "CN",
    "subnational1Code": "CN-44",
    "lat": 21.4418673,
    "lng": 109.9608557,
    "latestObsDt": "2025-01-31 16:59",
    "numSpeciesAllTime": 89
  },
  "三娘湾 (San Niang Bay)": {
    "locId": "L10347400",
    "locName": "三娘湾 (San Niang Bay)",
    "countryCode": "CN",
    "subnational1Code": "CN-45",
    "lat": 21.6225587,
    "lng": 108.7768806,
    "latestObsDt": "2024-11-21 09:00",
    "numSpeciesAllTime": 94
  },
  "三家村水库 (Sanjiacun Reservoir)": {
    "locId": "L8418572",
    "locName": "三家村水库 (Sanjiacun Reservoir)",
    "countryCode": "CN",
    "subnational1Code": "CN-53",
    "lat": 25.045095,
    "lng": 102.592921,
    "latestObsDt": "2025-02-14 17:39",
    "numSpeciesAllTime": 159
  },
  "三峡人家风景区 (Three-Gorges Village Scenic Area)": {
    "locId": "L10172976",
    "locName": "三峡人家风景区 (Three-Gorges Village Scenic Area)",
    "countryCode": "CN",
    "subnational1Code": "CN-42",
    "lat": 30.7827726,
    "lng": 111.154068,
    "latestObsDt": "2024-11-03 07:00",
    "numSpeciesAllTime": 91
  },
  "三明罗卜岩省级自然保护区 (Sanming Luoboyan PNR)": {
    "locId": "L9929580",
    "locName": "三明罗卜岩省级自然保护区 (Sanming Luoboyan PNR)",
    "countryCode": "CN",
    "subnational1Code": "CN-35",
    "lat": 26.4333333,
    "lng": 117.5666666,
    "latestObsDt": "2025-01-10 08:57",
    "numSpeciesAllTime": 123
  },
  "三星堆博物馆及鸭子河 (Sanxingdui Museum & Duck River)": {
    "locId": "L9217376",
    "locName": "三星堆博物馆及鸭子河 (Sanxingdui Museum & Duck River)",
    "countryCode": "CN",
    "subnational1Code": "CN-51",
    "lat": 31.0030386,
    "lng": 104.2181559,
    "latestObsDt": "2024-11-25 12:02",
    "numSpeciesAllTime": 119
  },
  "三星湖 (Sanxing Lake)": {
    "locId": "L38190436",
    "locName": "三星湖 (Sanxing Lake)",
    "countryCode": "CN",
    "subnational1Code": "CN-51",
    "lat": 30.9236494,
    "lng": 104.30499,
    "latestObsDt": "2024-11-25 09:00",
    "numSpeciesAllTime": 3
  },
  "三桥湿地公园 (Sanqiao Wetland Park)": {
    "locId": "L39857412",
    "locName": "三桥湿地公园 (Sanqiao Wetland Park)",
    "countryCode": "CN",
    "subnational1Code": "CN-32",
    "lat": 31.9587346,
    "lng": 118.6507988
  },
  "三水森林公园 (Sanshui Forest Park)": {
    "locId": "L39656169",
    "locName": "三水森林公园 (Sanshui Forest Park)",
    "countryCode": "CN",
    "subnational1Code": "CN-44",
    "lat": 23.1856408,
    "lng": 112.8706904,
    "latestObsDt": "2025-01-16 11:39",
    "numSpeciesAllTime": 24
  },
  "三汊河国家湿地公园 (Sanchahe National Wetland Park)": {
    "locId": "L28148840",
    "locName": "三汊河国家湿地公园 (Sanchahe National Wetland Park)",
    "countryCode": "CN",
    "subnational1Code": "CN-34",
    "lat": 33.047983,
    "lng": 117.3230595,
    "latestObsDt": "2025-01-27 08:21",
    "numSpeciesAllTime": 56
  },
  "三江口公园 (Sanjiangkou Park)": {
    "locId": "L27367823",
    "locName": "三江口公园 (Sanjiangkou Park)",
    "countryCode": "CN",
    "subnational1Code": "CN-33",
    "lat": 28.6918742,
    "lng": 121.3315221,
    "latestObsDt": "2024-11-23 00:00",
    "numSpeciesAllTime": 9
  },
  "三河国际荷花博览园及巢湖滩涂 (Sanhe Lotus Expo Park & Lakefront Tidal Flats)": {
    "locId": "L20908863",
    "locName": "三河国际荷花博览园及巢湖滩涂 (Sanhe Lotus Expo Park & Lakefront Tidal Flats)",
    "countryCode": "CN",
    "subnational1Code": "CN-34",
    "lat": 31.578585,
    "lng": 117.300825,
    "latestObsDt": "2025-02-15 15:45",
    "numSpeciesAllTime": 98
  },
  "三清山风景区 (Sanqing Mountain Scenic Area)": {
    "locId": "L9399053",
    "locName": "三清山风景区 (Sanqing Mountain Scenic Area)",
    "countryCode": "CN",
    "subnational1Code": "CN-36",
    "lat": 28.9030496,
    "lng": 118.067448,
    "latestObsDt": "2025-02-01 13:00",
    "numSpeciesAllTime": 65
  },
  "三渡溪水库 (Sanduxi Reservoir)": {
    "locId": "L22315373",
    "locName": "三渡溪水库 (Sanduxi Reservoir)",
    "countryCode": "CN",
    "subnational1Code": "CN-33",
    "lat": 29.0271793,
    "lng": 120.0690054,
    "latestObsDt": "2025-01-04 16:03",
    "numSpeciesAllTime": 33
  },
  "三潭峡 (Santanxia)": {
    "locId": "L38018739",
    "locName": "三潭峡 (Santanxia)",
    "countryCode": "CN",
    "subnational1Code": "CN-15",
    "lat": 47.2934875,
    "lng": 120.4558129
  },
  "三甲港 (Sanjia Habour)": {
    "locId": "L3839594",
    "locName": "三甲港 (Sanjia Habour)",
    "countryCode": "CN",
    "subnational1Code": "CN-31",
    "lat": 31.2092412,
    "lng": 121.7818809,
    "latestObsDt": "2025-02-16 11:49",
    "numSpeciesAllTime": 139
  },
  "三角洲水库 (Delta Reservoir)": {
    "locId": "L21266258",
    "locName": "三角洲水库 (Delta Reservoir)",
    "countryCode": "CN",
    "subnational1Code": "CN-21",
    "lat": 40.861573,
    "lng": 121.9352289,
    "latestObsDt": "2022-10-11 14:30",
    "numSpeciesAllTime": 8
  },
  "三角洲生态公园 (Delta Eco-Park)": {
    "locId": "L38650629",
    "locName": "三角洲生态公园 (Delta Eco-Park)",
    "countryCode": "CN",
    "subnational1Code": "CN-34",
    "lat": 33.6627928,
    "lng": 116.9611163
  },
  "三道桥 (Sandaoqiao)": {
    "locId": "L5806609",
    "locName": "三道桥 (Sandaoqiao)",
    "countryCode": "CN",
    "subnational1Code": "CN-51",
    "lat": 30.9683583,
    "lng": 103.1104717,
    "latestObsDt": "2021-06-05 08:15",
    "numSpeciesAllTime": 157
  },
  "三道海子 (Lake Sandaohaizi)": {
    "locId": "L37993113",
    "locName": "三道海子 (Lake Sandaohaizi)",
    "countryCode": "CN",
    "subnational1Code": "CN-65",
    "lat": 46.7731197,
    "lng": 90.8939245
  },
  "三门峡南湖 (South Lake, Sanmenxia)": {
    "locId": "L37918524",
    "locName": "三门峡南湖 (South Lake, Sanmenxia)",
    "countryCode": "CN",
    "subnational1Code": "CN-41",
    "lat": 34.7785357,
    "lng": 111.1479887,
    "latestObsDt": "2024-02-11 14:00",
    "numSpeciesAllTime": 3
  },
  "三门峡黄河公园 (Yellow River Park, Sanmenxia)": {
    "locId": "L1509364",
    "locName": "三门峡黄河公园 (Yellow River Park, Sanmenxia)",
    "countryCode": "CN",
    "subnational1Code": "CN-41",
    "lat": 34.7946903,
    "lng": 111.2094163,
    "latestObsDt": "2012-01-25 15:00",
    "numSpeciesAllTime": 21
  },
  "三门江森林公园 (Sanmenjiang Forest Park)": {
    "locId": "L38426332",
    "locName": "三门江森林公园 (Sanmenjiang Forest Park)",
    "countryCode": "CN",
    "subnational1Code": "CN-45",
    "lat": 24.3531646,
    "lng": 109.4904369
  },
  "三阳镇 (Sanyang Town)": {
    "locId": "L8529437",
    "locName": "三阳镇 (Sanyang Town)",
    "countryCode": "CN",
    "subnational1Code": "CN-42",
    "lat": 31.303407,
    "lng": 113.193515,
    "latestObsDt": "2023-05-27 10:15",
    "numSpeciesAllTime": 101
  },
  "三雅村 (Sanya Village)": {
    "locId": "L32240035",
    "locName": "三雅村 (Sanya Village)",
    "countryCode": "CN",
    "subnational1Code": "CN-46",
    "lat": 19.2649181,
    "lng": 109.6633353,
    "latestObsDt": "2025-02-17 07:08",
    "numSpeciesAllTime": 94
  },
  "上中坝湿地公园 (Shangzhongba Wetland Park)": {
    "locId": "L38175310",
    "locName": "上中坝湿地公园 (Shangzhongba Wetland Park)",
    "countryCode": "CN",
    "subnational1Code": "CN-51",
    "lat": 30.796622,
    "lng": 106.1065491
  },
  "上前海 (Shangqianhai)": {
    "locId": "L39820404",
    "locName": "上前海 (Shangqianhai)",
    "countryCode": "CN",
    "subnational1Code": "CN-44",
    "lat": 21.5140879,
    "lng": 111.2323843
  },
  "上华美丽田园 (Shanghua Farmlands)": {
    "locId": "L39964079",
    "locName": "上华美丽田园 (Shanghua Farmlands)",
    "countryCode": "CN",
    "subnational1Code": "CN-44",
    "lat": 22.9726438,
    "lng": 113.0755413
  },
  "上四寨沟 (Upper-Four-Village Valley)": {
    "locId": "L4683648",
    "locName": "上四寨沟 (Upper-Four-Village Valley)",
    "countryCode": "CN",
    "subnational1Code": "CN-51",
    "lat": 33.31421,
    "lng": 103.76783,
    "latestObsDt": "2024-11-01 08:11",
    "numSpeciesAllTime": 113
  },
  "上坝河国家森林公园 (Shangbahe National Forest Park)": {
    "locId": "L7210684",
    "locName": "上坝河国家森林公园 (Shangbahe National Forest Park)",
    "countryCode": "CN",
    "subnational1Code": "CN-61",
    "lat": 33.3610303,
    "lng": 108.4524008,
    "latestObsDt": "2016-07-03 14:06",
    "numSpeciesAllTime": 53
  },
  "上坪田村 (Shangpingtian)": {
    "locId": "L16062944",
    "locName": "上坪田村 (Shangpingtian)",
    "countryCode": "CN",
    "subnational1Code": "CN-33",
    "lat": 29.2638917,
    "lng": 118.8046629,
    "latestObsDt": "2024-07-31 00:00",
    "numSpeciesAllTime": 8
  },
  "上大陈岛 (Upper Dachen Island)": {
    "locId": "L19267924",
    "locName": "上大陈岛 (Upper Dachen Island)",
    "countryCode": "CN",
    "subnational1Code": "CN-33",
    "lat": 28.4884317,
    "lng": 121.8966963,
    "latestObsDt": "2022-05-26 05:26",
    "numSpeciesAllTime": 40
  },
  "上官庄 (Shangguanzhuang)": {
    "locId": "L23956557",
    "locName": "上官庄 (Shangguanzhuang)",
    "countryCode": "CN",
    "subnational1Code": "CN-37",
    "lat": 35.4480417,
    "lng": 118.87443,
    "latestObsDt": "2024-09-16 10:00",
    "numSpeciesAllTime": 56
  },
  "上实农业 (ShangShi Farm)": {
    "locId": "L40003552",
    "locName": "上实农业 (ShangShi Farm)",
    "countryCode": "CN",
    "subnational1Code": "CN-31",
    "lat": 31.483348,
    "lng": 121.9300715,
    "latestObsDt": "2024-01-06 08:00",
    "numSpeciesAllTime": 39
  },
  "上方山国家森林公园 (Shangfangshan National Forest Park)": {
    "locId": "L7283433",
    "locName": "上方山国家森林公园 (Shangfangshan National Forest Park)",
    "countryCode": "CN",
    "subnational1Code": "CN-32",
    "lat": 31.2444464,
    "lng": 120.5806208,
    "latestObsDt": "2025-01-17 10:17",
    "numSpeciesAllTime": 88
  },
  "上李水库 (Shangli Reservoir)": {
    "locId": "L39796081",
    "locName": "上李水库 (Shangli Reservoir)",
    "countryCode": "CN",
    "subnational1Code": "CN-35",
    "lat": 24.4448228,
    "lng": 118.1274611,
    "latestObsDt": "2024-03-24 07:42",
    "numSpeciesAllTime": 1
  },
  "上海世博公园 (Shanghai Expo Park)": {
    "locId": "L8337265",
    "locName": "上海世博公园 (Shanghai Expo Park)",
    "countryCode": "CN",
    "subnational1Code": "CN-31",
    "lat": 31.187593,
    "lng": 121.48738,
    "latestObsDt": "2024-12-25 00:00",
    "numSpeciesAllTime": 63
  },
  "上海中学 (Shanghai High School)": {
    "locId": "L5818203",
    "locName": "上海中学 (Shanghai High School)",
    "countryCode": "CN",
    "subnational1Code": "CN-31",
    "lat": 31.1411227,
    "lng": 121.433528,
    "latestObsDt": "2024-11-05 13:00",
    "numSpeciesAllTime": 99
  },
  "上海交通大学 (Shanghai Jiao Tong University)": {
    "locId": "L5095384",
    "locName": "上海交通大学 (Shanghai Jiao Tong University)",
    "countryCode": "CN",
    "subnational1Code": "CN-31",
    "lat": 31.0277097,
    "lng": 121.4367878,
    "latestObsDt": "2024-07-08 13:36",
    "numSpeciesAllTime": 86
  },
  "上海动物园 (Shanghai Zoo)": {
    "locId": "L1800516",
    "locName": "上海动物园 (Shanghai Zoo)",
    "countryCode": "CN",
    "subnational1Code": "CN-31",
    "lat": 31.1925692,
    "lng": 121.3647346,
    "latestObsDt": "2025-02-17 10:05",
    "numSpeciesAllTime": 101
  },
  "上海外国语大学松江校区 (Shanghai International Studies University - Songjiang Campus)": {
    "locId": "L6596329",
    "locName": "上海外国语大学松江校区 (Shanghai International Studies University - Songjiang Campus)",
    "countryCode": "CN",
    "subnational1Code": "CN-31",
    "lat": 31.0467013,
    "lng": 121.224521,
    "latestObsDt": "2024-11-05 08:00",
    "numSpeciesAllTime": 70
  },
  "上海外滩 (The Bund of Shanghai)": {
    "locId": "L3639862",
    "locName": "上海外滩 (The Bund of Shanghai)",
    "countryCode": "CN",
    "subnational1Code": "CN-31",
    "lat": 31.2393306,
    "lng": 121.4904382,
    "latestObsDt": "2025-02-03 08:39",
    "numSpeciesAllTime": 54
  },
  "上海师范大学奉贤校区 (Shanghai Normal University - Fengxian Campus)": {
    "locId": "L39480626",
    "locName": "上海师范大学奉贤校区 (Shanghai Normal University - Fengxian Campus)",
    "countryCode": "CN",
    "subnational1Code": "CN-31",
    "lat": 30.8352473,
    "lng": 121.5199256,
    "latestObsDt": "2024-04-02 15:55",
    "numSpeciesAllTime": 23
  },
  "上海植物园 (Shanghai Botanical Garden)": {
    "locId": "L1122868",
    "locName": "上海植物园 (Shanghai Botanical Garden)",
    "countryCode": "CN",
    "subnational1Code": "CN-31",
    "lat": 31.1469606,
    "lng": 121.4440785,
    "latestObsDt": "2025-02-14 13:16",
    "numSpeciesAllTime": 143
  },
  "上海汽车博览公园 (Shanghai Auto-Expo Park)": {
    "locId": "L6068729",
    "locName": "上海汽车博览公园 (Shanghai Auto-Expo Park)",
    "countryCode": "CN",
    "subnational1Code": "CN-31",
    "lat": 31.2778907,
    "lng": 121.1755085,
    "latestObsDt": "2024-10-02 09:30",
    "numSpeciesAllTime": 33
  },
  "上海浦东国际机场 (Shanghai Pudong International Airport)": {
    "locId": "L6124266",
    "locName": "上海浦东国际机场 (Shanghai Pudong International Airport)",
    "countryCode": "CN",
    "subnational1Code": "CN-31",
    "lat": 31.144344,
    "lng": 121.8082731,
    "latestObsDt": "2025-02-17 16:50",
    "numSpeciesAllTime": 71
  },
  "上海海事大学 (Shanghai Maritime University)": {
    "locId": "L38722480",
    "locName": "上海海事大学 (Shanghai Maritime University)",
    "countryCode": "CN",
    "subnational1Code": "CN-31",
    "lat": 30.8742945,
    "lng": 121.9051074,
    "latestObsDt": "2024-09-21 14:13",
    "numSpeciesAllTime": 8
  },
  "上海海洋大学 (Shanghai Ocean University)": {
    "locId": "L28759367",
    "locName": "上海海洋大学 (Shanghai Ocean University)",
    "countryCode": "CN",
    "subnational1Code": "CN-31",
    "lat": 30.8851909,
    "lng": 121.8946028,
    "latestObsDt": "2025-01-05 19:26",
    "numSpeciesAllTime": 85
  },
  "上海海湾国家森林公园 (Shanghai Gulf National Forest Park)": {
    "locId": "L8683517",
    "locName": "上海海湾国家森林公园 (Shanghai Gulf National Forest Park)",
    "countryCode": "CN",
    "subnational1Code": "CN-31",
    "lat": 30.8547493,
    "lng": 121.6898088,
    "latestObsDt": "2024-10-20 12:00",
    "numSpeciesAllTime": 165
  },
  "上海淞沪抗战纪念公园 (The Battle of Shanghai Memorial Park)": {
    "locId": "L39480690",
    "locName": "上海淞沪抗战纪念公园 (The Battle of Shanghai Memorial Park)",
    "countryCode": "CN",
    "subnational1Code": "CN-31",
    "lat": 31.409463,
    "lng": 121.4939755,
    "latestObsDt": "2024-05-03 15:30",
    "numSpeciesAllTime": 7
  },
  "上海滨海森林公园 (Shanghai Coastal Forest Park)": {
    "locId": "L5266169",
    "locName": "上海滨海森林公园 (Shanghai Coastal Forest Park)",
    "countryCode": "CN",
    "subnational1Code": "CN-31",
    "lat": 30.966324,
    "lng": 121.910289,
    "latestObsDt": "2025-02-12 10:50",
    "numSpeciesAllTime": 106
  },
  "上海科技大学 (ShanghaiTech University)": {
    "locId": "L37560690",
    "locName": "上海科技大学 (ShanghaiTech University)",
    "countryCode": "CN",
    "subnational1Code": "CN-31",
    "lat": 31.1770465,
    "lng": 121.5938726,
    "latestObsDt": "2025-02-17 07:15",
    "numSpeciesAllTime": 58
  },
  "上海薰衣草公园 (Shanghai Lavender Park)": {
    "locId": "L26329405",
    "locName": "上海薰衣草公园 (Shanghai Lavender Park)",
    "countryCode": "CN",
    "subnational1Code": "CN-31",
    "lat": 31.146306,
    "lng": 121.669035,
    "latestObsDt": "2023-08-01 17:23",
    "numSpeciesAllTime": 21
  },
  "上海虹桥国际机场 (Shanghai Hongqiao International Airport)": {
    "locId": "L9330294",
    "locName": "上海虹桥国际机场 (Shanghai Hongqiao International Airport)",
    "countryCode": "CN",
    "subnational1Code": "CN-31",
    "lat": 31.192105,
    "lng": 121.331373,
    "latestObsDt": "2024-12-28 12:00",
    "numSpeciesAllTime": 27
  },
  "上海西庭网球俱乐部及公寓 (Shanghai Racquet Club & Apartments)": {
    "locId": "L18378704",
    "locName": "上海西庭网球俱乐部及公寓 (Shanghai Racquet Club & Apartments)",
    "countryCode": "CN",
    "subnational1Code": "CN-31",
    "lat": 31.204726,
    "lng": 121.288858,
    "latestObsDt": "2024-07-28 15:48",
    "numSpeciesAllTime": 38
  },
  "上海辰山植物园 (Shanghai Chenshan Botanical Garden)": {
    "locId": "L18282994",
    "locName": "上海辰山植物园 (Shanghai Chenshan Botanical Garden)",
    "countryCode": "CN",
    "subnational1Code": "CN-31",
    "lat": 31.0772465,
    "lng": 121.1801648,
    "latestObsDt": "2025-01-03 13:55",
    "numSpeciesAllTime": 79
  },
  "上海野生动物园 (Shanghai Wild Animal Park)": {
    "locId": "L21902313",
    "locName": "上海野生动物园 (Shanghai Wild Animal Park)",
    "countryCode": "CN",
    "subnational1Code": "CN-31",
    "lat": 31.057479,
    "lng": 121.720941,
    "latestObsDt": "2022-12-25 13:28",
    "numSpeciesAllTime": 20
  },
  "上涉湖 (Shangshe Lake)": {
    "locId": "L38090219",
    "locName": "上涉湖 (Shangshe Lake)",
    "countryCode": "CN",
    "subnational1Code": "CN-42",
    "lat": 30.1345128,
    "lng": 114.2212486,
    "latestObsDt": "2022-02-19 09:00",
    "numSpeciesAllTime": 34
  },
  "上涌果树公园 (Shangyong Guoshu Park)": {
    "locId": "L40090390",
    "locName": "上涌果树公园 (Shangyong Guoshu Park)",
    "countryCode": "CN",
    "subnational1Code": "CN-44",
    "lat": 23.0756455,
    "lng": 113.3068555
  },
  "上游水库 (Shangyou Reservoir)": {
    "locId": "L9746044",
    "locName": "上游水库 (Shangyou Reservoir)",
    "countryCode": "CN",
    "subnational1Code": "CN-53",
    "lat": 25.401685,
    "lng": 103.089137,
    "latestObsDt": "2019-11-19 15:00",
    "numSpeciesAllTime": 15
  },
  "上良湿地 (Shangliang Wetlands)": {
    "locId": "L30256418",
    "locName": "上良湿地 (Shangliang Wetlands)",
    "countryCode": "CN",
    "subnational1Code": "CN-44",
    "lat": 23.3108841,
    "lng": 114.1140316,
    "latestObsDt": "2024-03-31 14:30",
    "numSpeciesAllTime": 32
  },
  "上虎跳峡 (Upper Tiger Leaping Gorge)": {
    "locId": "L1319372",
    "locName": "上虎跳峡 (Upper Tiger Leaping Gorge)",
    "countryCode": "CN",
    "subnational1Code": "CN-53",
    "lat": 27.188974,
    "lng": 100.1157045,
    "latestObsDt": "2025-02-02 15:00",
    "numSpeciesAllTime": 154
  },
  "上虞滨江湿地公园 (Shangyu Riverside Wetland Park)": {
    "locId": "L29261706",
    "locName": "上虞滨江湿地公园 (Shangyu Riverside Wetland Park)",
    "countryCode": "CN",
    "subnational1Code": "CN-33",
    "lat": 30.000842,
    "lng": 120.8805091,
    "latestObsDt": "2024-02-09 00:00",
    "numSpeciesAllTime": 1
  },
  "上虞滨海围垦区 (Shangyu Coast)": {
    "locId": "L4285148",
    "locName": "上虞滨海围垦区 (Shangyu Coast)",
    "countryCode": "CN",
    "subnational1Code": "CN-33",
    "lat": 30.2138969,
    "lng": 120.8982819,
    "latestObsDt": "2025-02-16 09:39",
    "numSpeciesAllTime": 269
  },
  "上西村美丽田园": {
    "locId": "L29736173",
    "locName": "上西村美丽田园",
    "countryCode": "CN",
    "subnational1Code": "CN-44",
    "lat": 22.7966824,
    "lng": 114.6567166,
    "latestObsDt": "2025-02-15 08:30",
    "numSpeciesAllTime": 91
  },
  "上马台水库 (Shangmatai Reservoir)": {
    "locId": "L32490099",
    "locName": "上马台水库 (Shangmatai Reservoir)",
    "countryCode": "CN",
    "subnational1Code": "CN-12",
    "lat": 39.3719735,
    "lng": 117.2743158,
    "latestObsDt": "2022-10-10 06:30",
    "numSpeciesAllTime": 111
  },
  "下八家户 (Xiabajiahu)": {
    "locId": "L37992111",
    "locName": "下八家户 (Xiabajiahu)",
    "countryCode": "CN",
    "subnational1Code": "CN-65",
    "lat": 44.4088461,
    "lng": 86.1551436,
    "latestObsDt": "2024-12-31 09:40",
    "numSpeciesAllTime": 52
  },
  "下吴村 (Xiawu Village)": {
    "locId": "L38039786",
    "locName": "下吴村 (Xiawu Village)",
    "countryCode": "CN",
    "subnational1Code": "CN-35",
    "lat": 25.9103547,
    "lng": 119.5870775,
    "latestObsDt": "2024-11-15 12:00",
    "numSpeciesAllTime": 64
  },
  "下坪村 (Xiaping Village)": {
    "locId": "L39816759",
    "locName": "下坪村 (Xiaping Village)",
    "countryCode": "CN",
    "subnational1Code": "CN-44",
    "lat": 23.7099946,
    "lng": 116.6826601
  },
  "下塘村 (Xiatang Village)": {
    "locId": "L17351782",
    "locName": "下塘村 (Xiatang Village)",
    "countryCode": "CN",
    "subnational1Code": "CN-46",
    "lat": 19.9655842,
    "lng": 110.5832463,
    "latestObsDt": "2024-08-31 00:00",
    "numSpeciesAllTime": 100
  },
  "下大陈岛 (Lower Dachen Island)": {
    "locId": "L37636198",
    "locName": "下大陈岛 (Lower Dachen Island)",
    "countryCode": "CN",
    "subnational1Code": "CN-33",
    "lat": 28.4442592,
    "lng": 121.9009
  },
  "下村 (Xiacun Lakefront)": {
    "locId": "L38127794",
    "locName": "下村 (Xiacun Lakefront)",
    "countryCode": "CN",
    "subnational1Code": "CN-53",
    "lat": 24.7698291,
    "lng": 102.715676
  },
  "下沙沿江湿地 (Xiasha Riverside Wetlands)": {
    "locId": "L10824731",
    "locName": "下沙沿江湿地 (Xiasha Riverside Wetlands)",
    "countryCode": "CN",
    "subnational1Code": "CN-33",
    "lat": 30.2800734,
    "lng": 120.3835076,
    "latestObsDt": "2024-12-24 15:31",
    "numSpeciesAllTime": 83
  },
  "下洪水库 (Xiahong Reservoir)": {
    "locId": "L39857095",
    "locName": "下洪水库 (Xiahong Reservoir)",
    "countryCode": "CN",
    "subnational1Code": "CN-32",
    "lat": 34.1281002,
    "lng": 117.459141
  },
  "下渚湖 (Xiazhu Lake Wetlands)": {
    "locId": "L3166711",
    "locName": "下渚湖 (Xiazhu Lake Wetlands)",
    "countryCode": "CN",
    "subnational1Code": "CN-33",
    "lat": 30.5171257,
    "lng": 120.0532079,
    "latestObsDt": "2025-02-02 00:00",
    "numSpeciesAllTime": 135
  },
  "下渚湖国家湿地公园--道观山 (Xiazhuhu National Wetland Park--Daoguanshan)": {
    "locId": "L39304426",
    "locName": "下渚湖国家湿地公园--道观山 (Xiazhuhu National Wetland Park--Daoguanshan)",
    "countryCode": "CN",
    "subnational1Code": "CN-33",
    "lat": 30.519895,
    "lng": 120.059721,
    "latestObsDt": "2025-01-10 14:49",
    "numSpeciesAllTime": 33
  },
  "下潭尾湿地公园 (Xiatanwei Wetland Park)": {
    "locId": "L39795142",
    "locName": "下潭尾湿地公园 (Xiatanwei Wetland Park)",
    "countryCode": "CN",
    "subnational1Code": "CN-35",
    "lat": 24.6457654,
    "lng": 118.1952226
  },
  "下节土楼 (Xiajie Tulou Scenic Area)": {
    "locId": "L26127525",
    "locName": "下节土楼 (Xiajie Tulou Scenic Area)",
    "countryCode": "CN",
    "subnational1Code": "CN-35",
    "lat": 24.5942493,
    "lng": 117.0480367,
    "latestObsDt": "2024-11-14 10:39",
    "numSpeciesAllTime": 18
  },
  "不冻泉 (Unfrozen Spring)": {
    "locId": "L34586187",
    "locName": "不冻泉 (Unfrozen Spring)",
    "countryCode": "CN",
    "subnational1Code": "CN-63",
    "lat": 35.519536,
    "lng": 93.916289,
    "latestObsDt": "2024-11-09 11:06",
    "numSpeciesAllTime": 11
  },
  "不老屯 (Bulaotun)": {
    "locId": "L2401562",
    "locName": "不老屯 (Bulaotun)",
    "countryCode": "CN",
    "subnational1Code": "CN-11",
    "lat": 40.5367642,
    "lng": 116.9741821,
    "latestObsDt": "2024-12-01 08:57",
    "numSpeciesAllTime": 270
  },
  "世博文化公园 (Expo Culture Park)": {
    "locId": "L37559803",
    "locName": "世博文化公园 (Expo Culture Park)",
    "countryCode": "CN",
    "subnational1Code": "CN-31",
    "lat": 31.1817454,
    "lng": 121.4798212,
    "latestObsDt": "2025-02-12 08:30",
    "numSpeciesAllTime": 53
  },
  "世博生态城 (Expo Eco-Town)": {
    "locId": "L16624689",
    "locName": "世博生态城 (Expo Eco-Town)",
    "countryCode": "CN",
    "subnational1Code": "CN-53",
    "lat": 25.0817523,
    "lng": 102.7561054,
    "latestObsDt": "2024-01-12 17:42",
    "numSpeciesAllTime": 33
  },
  "世博绿色出行林 (Expo Woods)": {
    "locId": "L40002578",
    "locName": "世博绿色出行林 (Expo Woods)",
    "countryCode": "CN",
    "subnational1Code": "CN-31",
    "lat": 31.1227129,
    "lng": 121.4627806,
    "latestObsDt": "2025-02-08 15:42",
    "numSpeciesAllTime": 15
  },
  "世纪公园 (Century Park)": {
    "locId": "L1029418",
    "locName": "世纪公园 (Century Park)",
    "countryCode": "CN",
    "subnational1Code": "CN-31",
    "lat": 31.214967,
    "lng": 121.5496015,
    "latestObsDt": "2025-02-17 16:37",
    "numSpeciesAllTime": 224
  },
  "世纪城天鹅湖 (Swan Lake at Century City)": {
    "locId": "L2315284",
    "locName": "世纪城天鹅湖 (Swan Lake at Century City)",
    "countryCode": "CN",
    "subnational1Code": "CN-51",
    "lat": 30.5585078,
    "lng": 104.0721624,
    "latestObsDt": "2023-10-12 07:00",
    "numSpeciesAllTime": 30
  },
  "世纪塘路海滨 (Shijitang Rd. Coast)": {
    "locId": "L29248901",
    "locName": "世纪塘路海滨 (Shijitang Rd. Coast)",
    "countryCode": "CN",
    "subnational1Code": "CN-31",
    "lat": 30.86285,
    "lng": 121.9277581,
    "latestObsDt": "2024-12-14 10:25",
    "numSpeciesAllTime": 178
  },
  "丙闷榕树群 (Bingmen Banyan Grove)": {
    "locId": "L6853243",
    "locName": "丙闷榕树群 (Bingmen Banyan Grove)",
    "countryCode": "CN",
    "subnational1Code": "CN-53",
    "lat": 25.0637,
    "lng": 98.8337,
    "latestObsDt": "2025-01-14 14:38",
    "numSpeciesAllTime": 47
  },
  "丛台公园 (Congtai Park)": {
    "locId": "L38113681",
    "locName": "丛台公园 (Congtai Park)",
    "countryCode": "CN",
    "subnational1Code": "CN-13",
    "lat": 36.615695,
    "lng": 114.4906965
  },
  "东丽湖 (Dongli Lake)": {
    "locId": "L32227957",
    "locName": "东丽湖 (Dongli Lake)",
    "countryCode": "CN",
    "subnational1Code": "CN-12",
    "lat": 39.1661457,
    "lng": 117.4845517,
    "latestObsDt": "2022-10-17 09:10",
    "numSpeciesAllTime": 61
  },
  "东仲林场 (Dongzhong Forest)": {
    "locId": "L11116758",
    "locName": "东仲林场 (Dongzhong Forest)",
    "countryCode": "CN",
    "subnational1Code": "CN-63",
    "lat": 32.661908,
    "lng": 97.4649572,
    "latestObsDt": "2018-08-14 07:00",
    "numSpeciesAllTime": 18
  },
  "东侨体育公园 (Dongqiao Sports Park)": {
    "locId": "L23723062",
    "locName": "东侨体育公园 (Dongqiao Sports Park)",
    "countryCode": "CN",
    "subnational1Code": "CN-35",
    "lat": 26.742193,
    "lng": 119.562534,
    "latestObsDt": "2023-07-19 08:50",
    "numSpeciesAllTime": 19
  },
  "东凌 (​Dongling Coast)": {
    "locId": "L6183781",
    "locName": "东凌 (​Dongling Coast)",
    "countryCode": "CN",
    "subnational1Code": "CN-32",
    "lat": 32.22442,
    "lng": 121.534255,
    "latestObsDt": "2025-01-16 13:26",
    "numSpeciesAllTime": 265
  },
  "东凌水库 (Dongling Reservoir)": {
    "locId": "L32413960",
    "locName": "东凌水库 (Dongling Reservoir)",
    "countryCode": "CN",
    "subnational1Code": "CN-32",
    "lat": 32.2980824,
    "lng": 121.4302801,
    "latestObsDt": "2025-01-16 16:27",
    "numSpeciesAllTime": 93
  },
  "东凌海蜇塘 (Dongling Jellyfish Farm)": {
    "locId": "L39866719",
    "locName": "东凌海蜇塘 (Dongling Jellyfish Farm)",
    "countryCode": "CN",
    "subnational1Code": "CN-32",
    "lat": 32.2549168,
    "lng": 121.4685707,
    "latestObsDt": "2025-01-01 16:08",
    "numSpeciesAllTime": 35
  },
  "东北林业大学林场 (Northeast Forestry University--Experimental Forest)": {
    "locId": "L38035966",
    "locName": "东北林业大学林场 (Northeast Forestry University--Experimental Forest)",
    "countryCode": "CN",
    "subnational1Code": "CN-23",
    "lat": 45.7223749,
    "lng": 126.6298289,
    "latestObsDt": "2024-11-01 07:00",
    "numSpeciesAllTime": 12
  },
  "东升八家郊野公园东园 (Dongsheng Bajia Country Park East)": {
    "locId": "L36715924",
    "locName": "东升八家郊野公园东园 (Dongsheng Bajia Country Park East)",
    "countryCode": "CN",
    "subnational1Code": "CN-11",
    "lat": 40.0200022,
    "lng": 116.3397905,
    "latestObsDt": "2025-01-12 12:08",
    "numSpeciesAllTime": 9
  },
  "东升八家郊野公园西园 (Dongsheng Bajia Country Park West)": {
    "locId": "L17743645",
    "locName": "东升八家郊野公园西园 (Dongsheng Bajia Country Park West)",
    "countryCode": "CN",
    "subnational1Code": "CN-11",
    "lat": 40.0182993,
    "lng": 116.3338108,
    "latestObsDt": "2024-09-16 09:54",
    "numSpeciesAllTime": 34
  },
  "东单公园 (Dongdan Park)": {
    "locId": "L36914383",
    "locName": "东单公园 (Dongdan Park)",
    "countryCode": "CN",
    "subnational1Code": "CN-11",
    "lat": 39.9047778,
    "lng": 116.41729
  },
  "东南大学九龙湖校区 (Southeast University - Jiulong Lake Campus)": {
    "locId": "L39863679",
    "locName": "东南大学九龙湖校区 (Southeast University - Jiulong Lake Campus)",
    "countryCode": "CN",
    "subnational1Code": "CN-32",
    "lat": 31.8874805,
    "lng": 118.8192825
  },
  "东古湖观鸟中心 (East Guhu Wetlands)": {
    "locId": "L38537303",
    "locName": "东古湖观鸟中心 (East Guhu Wetlands)",
    "countryCode": "CN",
    "subnational1Code": "CN-43",
    "lat": 28.8853929,
    "lng": 112.9327837,
    "latestObsDt": "2025-01-21 15:50",
    "numSpeciesAllTime": 65
  },
  "东台人民公园 (People's Park, Dongtai)": {
    "locId": "L17695759",
    "locName": "东台人民公园 (People's Park, Dongtai)",
    "countryCode": "CN",
    "subnational1Code": "CN-32",
    "lat": 32.8381594,
    "lng": 120.3210855,
    "latestObsDt": "2024-07-21 09:55",
    "numSpeciesAllTime": 25
  },
  "东台山国家森林公园 (Dongtaishan Forest Park)": {
    "locId": "L38527697",
    "locName": "东台山国家森林公园 (Dongtaishan Forest Park)",
    "countryCode": "CN",
    "subnational1Code": "CN-43",
    "lat": 27.7197965,
    "lng": 112.562827
  },
  "东吴文化公园 (Soochow Cultural Park)": {
    "locId": "L13182037",
    "locName": "东吴文化公园 (Soochow Cultural Park)",
    "countryCode": "CN",
    "subnational1Code": "CN-33",
    "lat": 30.024354,
    "lng": 119.9382691,
    "latestObsDt": "2021-01-18 09:15",
    "numSpeciesAllTime": 22
  },
  "东园 (East Garden)": {
    "locId": "L39907813",
    "locName": "东园 (East Garden)",
    "countryCode": "CN",
    "subnational1Code": "CN-32",
    "lat": 31.3190257,
    "lng": 120.6382852
  },
  "东坝郊野公园 (Dongba Country Park)": {
    "locId": "L13989779",
    "locName": "东坝郊野公园 (Dongba Country Park)",
    "countryCode": "CN",
    "subnational1Code": "CN-11",
    "lat": 39.9531828,
    "lng": 116.5770062,
    "latestObsDt": "2024-11-30 13:43",
    "numSpeciesAllTime": 51
  },
  "东坡书院 (Dongpo Shuyuan)": {
    "locId": "L23205821",
    "locName": "东坡书院 (Dongpo Shuyuan)",
    "countryCode": "CN",
    "subnational1Code": "CN-46",
    "lat": 19.737943,
    "lng": 109.356425,
    "latestObsDt": "2025-02-16 17:03",
    "numSpeciesAllTime": 27
  },
  "东坡园 (Dongpo Park)": {
    "locId": "L39904185",
    "locName": "东坡园 (Dongpo Park)",
    "countryCode": "CN",
    "subnational1Code": "CN-32",
    "lat": 31.7672898,
    "lng": 119.9768874
  },
  "东坡城市湿地公园 (Dongpo Urban Wetland Park)": {
    "locId": "L38175429",
    "locName": "东坡城市湿地公园 (Dongpo Urban Wetland Park)",
    "countryCode": "CN",
    "subnational1Code": "CN-51",
    "lat": 30.0594939,
    "lng": 103.8579192
  },
  "东坡赤壁 (Dongpo Red Cliffs)": {
    "locId": "L38896904",
    "locName": "东坡赤壁 (Dongpo Red Cliffs)",
    "countryCode": "CN",
    "subnational1Code": "CN-42",
    "lat": 30.4557964,
    "lng": 114.8695412
  },
  "东堤公园 (Dongdi Park)": {
    "locId": "L22337248",
    "locName": "东堤公园 (Dongdi Park)",
    "countryCode": "CN",
    "subnational1Code": "CN-12",
    "lat": 39.0868708,
    "lng": 117.8286401,
    "latestObsDt": "2025-01-13 10:12",
    "numSpeciesAllTime": 27
  },
  "东壁岛垦区 (Dongbi Island Reclamation Area)": {
    "locId": "L22315019",
    "locName": "东壁岛垦区 (Dongbi Island Reclamation Area)",
    "countryCode": "CN",
    "subnational1Code": "CN-35",
    "lat": 25.5844236,
    "lng": 119.5112491,
    "latestObsDt": "2024-03-09 15:00",
    "numSpeciesAllTime": 67
  },
  "东大森林公园 (Dongda Forest Park)": {
    "locId": "L28044177",
    "locName": "东大森林公园 (Dongda Forest Park)",
    "countryCode": "CN",
    "subnational1Code": "CN-53",
    "lat": 25.0942934,
    "lng": 102.8376915,
    "latestObsDt": "2024-06-29 15:31",
    "numSpeciesAllTime": 12
  },
  "东大河湿地 (Dongdahe Wetlands)": {
    "locId": "L14475222",
    "locName": "东大河湿地 (Dongdahe Wetlands)",
    "countryCode": "CN",
    "subnational1Code": "CN-53",
    "lat": 24.6818453,
    "lng": 102.6337811,
    "latestObsDt": "2025-02-06 09:12",
    "numSpeciesAllTime": 123
  },
  "东大滩水库 (Dongdatan Reservoir)": {
    "locId": "L39614714",
    "locName": "东大滩水库 (Dongdatan Reservoir)",
    "countryCode": "CN",
    "subnational1Code": "CN-63",
    "lat": 36.8658132,
    "lng": 101.0330679,
    "latestObsDt": "2023-08-08 12:00",
    "numSpeciesAllTime": 7
  },
  "东天目山 (East Tianmu Mountain)": {
    "locId": "L3632631",
    "locName": "东天目山 (East Tianmu Mountain)",
    "countryCode": "CN",
    "subnational1Code": "CN-33",
    "lat": 30.342422,
    "lng": 119.50949,
    "latestObsDt": "2024-03-19 10:46",
    "numSpeciesAllTime": 56
  },
  "东太湖新联湿地 (East Taihu Xinlian Wetlands)": {
    "locId": "L26284657",
    "locName": "东太湖新联湿地 (East Taihu Xinlian Wetlands)",
    "countryCode": "CN",
    "subnational1Code": "CN-32",
    "lat": 31.116616,
    "lng": 120.540504,
    "latestObsDt": "2025-02-06 09:01",
    "numSpeciesAllTime": 128
  },
  "东太湖生态园 (East Taihu Eco-Park)": {
    "locId": "L22532625",
    "locName": "东太湖生态园 (East Taihu Eco-Park)",
    "countryCode": "CN",
    "subnational1Code": "CN-32",
    "lat": 31.1522107,
    "lng": 120.6001397,
    "latestObsDt": "2025-01-28 07:39",
    "numSpeciesAllTime": 30
  },
  "东安湖公园 (Dong'an Lake Park)": {
    "locId": "L27939892",
    "locName": "东安湖公园 (Dong'an Lake Park)",
    "countryCode": "CN",
    "subnational1Code": "CN-51",
    "lat": 30.5862869,
    "lng": 104.2259974,
    "latestObsDt": "2024-09-15 14:14",
    "numSpeciesAllTime": 45
  },
  "东安紫水湿地公园 (Dong'an Zishui Wetland Park)": {
    "locId": "L38501993",
    "locName": "东安紫水湿地公园 (Dong'an Zishui Wetland Park)",
    "countryCode": "CN",
    "subnational1Code": "CN-43",
    "lat": 26.3881201,
    "lng": 111.3177376
  },
  "东安舜皇山国家级自然保护区 (Shunhuang Mountain NNR)": {
    "locId": "L1795785",
    "locName": "东安舜皇山国家级自然保护区 (Shunhuang Mountain NNR)",
    "countryCode": "CN",
    "subnational1Code": "CN-43",
    "lat": 26.4167,
    "lng": 111.03,
    "latestObsDt": "2016-06-22 06:00",
    "numSpeciesAllTime": 104
  },
  "东宝山 (Dongbao Mountain)": {
    "locId": "L39581742",
    "locName": "东宝山 (Dongbao Mountain)",
    "countryCode": "CN",
    "subnational1Code": "CN-42",
    "lat": 31.0172218,
    "lng": 112.2098073
  },
  "东寨港 (Dongzhai Harbor)": {
    "locId": "L3480466",
    "locName": "东寨港 (Dongzhai Harbor)",
    "countryCode": "CN",
    "subnational1Code": "CN-46",
    "lat": 19.9473715,
    "lng": 110.6058884,
    "latestObsDt": "2024-01-03 15:17",
    "numSpeciesAllTime": 111
  },
  "东寮岛 (Dongliao Island)": {
    "locId": "L14877053",
    "locName": "东寮岛 (Dongliao Island)",
    "countryCode": "CN",
    "subnational1Code": "CN-44",
    "lat": 20.820869,
    "lng": 110.383032,
    "latestObsDt": "2021-05-08 16:00",
    "numSpeciesAllTime": 21
  },
  "东小口森林公园 (Dongxiaokou Forest Park)": {
    "locId": "L14683209",
    "locName": "东小口森林公园 (Dongxiaokou Forest Park)",
    "countryCode": "CN",
    "subnational1Code": "CN-11",
    "lat": 40.0464089,
    "lng": 116.3876099,
    "latestObsDt": "2024-09-11 15:00",
    "numSpeciesAllTime": 144
  },
  "东居延海 (Sugu Nuur)": {
    "locId": "L7234701",
    "locName": "东居延海 (Sugu Nuur)",
    "countryCode": "CN",
    "subnational1Code": "CN-15",
    "lat": 42.3364652,
    "lng": 101.2464666,
    "latestObsDt": "2022-07-25 18:56",
    "numSpeciesAllTime": 40
  },
  "东山公园 (Dongshan Park)": {
    "locId": "L10919749",
    "locName": "东山公园 (Dongshan Park)",
    "countryCode": "CN",
    "subnational1Code": "CN-33",
    "lat": 28.68003,
    "lng": 121.4543196,
    "latestObsDt": "2024-12-30 00:00",
    "numSpeciesAllTime": 26
  },
  "东山岭 (Dongshan Ridge)": {
    "locId": "L8340216",
    "locName": "东山岭 (Dongshan Ridge)",
    "countryCode": "CN",
    "subnational1Code": "CN-46",
    "lat": 18.8023181,
    "lng": 110.4240131,
    "latestObsDt": "2018-12-31 16:30",
    "numSpeciesAllTime": 12
  },
  "东山村湿地 (Dongshan Wetlands)": {
    "locId": "L39820193",
    "locName": "东山村湿地 (Dongshan Wetlands)",
    "countryCode": "CN",
    "subnational1Code": "CN-44",
    "lat": 22.8953387,
    "lng": 115.5367821,
    "latestObsDt": "2025-02-07 09:30",
    "numSpeciesAllTime": 74
  },
  "东山森林公园 (Dongshan Forest Park)": {
    "locId": "L22280596",
    "locName": "东山森林公园 (Dongshan Forest Park)",
    "countryCode": "CN",
    "subnational1Code": "CN-32",
    "lat": 31.094257,
    "lng": 120.396998,
    "latestObsDt": "2025-01-28 11:09",
    "numSpeciesAllTime": 50
  },
  "东山湖公园 (Dongshan Lake Park)": {
    "locId": "L4347809",
    "locName": "东山湖公园 (Dongshan Lake Park)",
    "countryCode": "CN",
    "subnational1Code": "CN-44",
    "lat": 23.1148567,
    "lng": 113.2928861,
    "latestObsDt": "2025-02-11 15:16",
    "numSpeciesAllTime": 72
  },
  "东山码头 (Dongshan Wharf)": {
    "locId": "L33430910",
    "locName": "东山码头 (Dongshan Wharf)",
    "countryCode": "CN",
    "subnational1Code": "CN-44",
    "lat": 22.557054,
    "lng": 114.530072,
    "latestObsDt": "2024-11-30 13:42",
    "numSpeciesAllTime": 48
  },
  "东岛 (Dong Dao/Lincoln Island)": {
    "locId": "L36200817",
    "locName": "东岛 (Dong Dao/Lincoln Island)",
    "countryCode": "CN",
    "subnational1Code": "CN-46",
    "lat": 16.666664,
    "lng": 112.7304193
  },
  "东岩公园 (Dongyan Park)": {
    "locId": "L38175376",
    "locName": "东岩公园 (Dongyan Park)",
    "countryCode": "CN",
    "subnational1Code": "CN-51",
    "lat": 28.882298,
    "lng": 105.4655148
  },
  "东岸湿地公园 (East Bank Wetland Park)": {
    "locId": "L38081257",
    "locName": "东岸湿地公园 (East Bank Wetland Park)",
    "countryCode": "CN",
    "subnational1Code": "CN-46",
    "lat": 18.2849387,
    "lng": 109.51231,
    "latestObsDt": "2025-01-31 10:01",
    "numSpeciesAllTime": 56
  },
  "东平国家森林公园 (Dongping National Forest Park)": {
    "locId": "L15112847",
    "locName": "东平国家森林公园 (Dongping National Forest Park)",
    "countryCode": "CN",
    "subnational1Code": "CN-31",
    "lat": 31.6817983,
    "lng": 121.4827824,
    "latestObsDt": "2024-12-17 10:49",
    "numSpeciesAllTime": 77
  },
  "东平河石湾湿地公园 (Dongping River Shiwan Wetland Park)": {
    "locId": "L39963271",
    "locName": "东平河石湾湿地公园 (Dongping River Shiwan Wetland Park)",
    "countryCode": "CN",
    "subnational1Code": "CN-44",
    "lat": 22.9793845,
    "lng": 113.1337738
  },
  "东庠岛 (Dongxiang Island)": {
    "locId": "L22914200",
    "locName": "东庠岛 (Dongxiang Island)",
    "countryCode": "CN",
    "subnational1Code": "CN-35",
    "lat": 25.5904225,
    "lng": 119.8915379,
    "latestObsDt": "2024-08-31 07:00",
    "numSpeciesAllTime": 24
  },
  "东方华地城": {
    "locId": "L13688800",
    "locName": "东方华地城",
    "countryCode": "CN",
    "subnational1Code": "CN-21",
    "lat": 40.92217,
    "lng": 121.566433,
    "latestObsDt": "2024-11-17 09:13",
    "numSpeciesAllTime": 96
  },
  "东方绿舟 (Shanghai Oriental Land)": {
    "locId": "L21755447",
    "locName": "东方绿舟 (Shanghai Oriental Land)",
    "countryCode": "CN",
    "subnational1Code": "CN-31",
    "lat": 31.102044,
    "lng": 121.004178,
    "latestObsDt": "2024-10-05 06:39",
    "numSpeciesAllTime": 39
  },
  "东方黑脸琵鹭省级自然保护区 (Dongfang Black-faced Spoonbill PNR)": {
    "locId": "L8220051",
    "locName": "东方黑脸琵鹭省级自然保护区 (Dongfang Black-faced Spoonbill PNR)",
    "countryCode": "CN",
    "subnational1Code": "CN-46",
    "lat": 19.214953,
    "lng": 108.642429,
    "latestObsDt": "2023-01-27 10:30",
    "numSpeciesAllTime": 89
  },
  "东日湿地 (Dongri Wetlands)": {
    "locId": "L23673987",
    "locName": "东日湿地 (Dongri Wetlands)",
    "countryCode": "CN",
    "subnational1Code": "CN-31",
    "lat": 30.931944,
    "lng": 121.912222,
    "latestObsDt": "2025-02-12 15:54",
    "numSpeciesAllTime": 188
  },
  "东昌湖--湿地岛 (Dongchang Lake--SE Wetlands)": {
    "locId": "L38786329",
    "locName": "东昌湖--湿地岛 (Dongchang Lake--SE Wetlands)",
    "countryCode": "CN",
    "subnational1Code": "CN-37",
    "lat": 36.4347356,
    "lng": 115.9739761
  },
  "东明山森林公园 (Dongming Mountain Forest Park)": {
    "locId": "L12765531",
    "locName": "东明山森林公园 (Dongming Mountain Forest Park)",
    "countryCode": "CN",
    "subnational1Code": "CN-33",
    "lat": 30.4332006,
    "lng": 119.9983827,
    "latestObsDt": "2022-06-27 08:53",
    "numSpeciesAllTime": 98
  },
  "东极岛 [庙子湖] (Dongji Island [Miaozihu])": {
    "locId": "L11649733",
    "locName": "东极岛 [庙子湖] (Dongji Island [Miaozihu])",
    "countryCode": "CN",
    "subnational1Code": "CN-33",
    "lat": 30.1938075,
    "lng": 122.6872885,
    "latestObsDt": "2024-10-21 00:00",
    "numSpeciesAllTime": 138
  },
  "东林山 (Donglin Hill)": {
    "locId": "L13140062",
    "locName": "东林山 (Donglin Hill)",
    "countryCode": "CN",
    "subnational1Code": "CN-33",
    "lat": 30.6826786,
    "lng": 120.0973038,
    "latestObsDt": "2025-01-07 00:00",
    "numSpeciesAllTime": 11
  },
  "东沙湖生态公园 (Dongshahu Eco-Park)": {
    "locId": "L13341721",
    "locName": "东沙湖生态公园 (Dongshahu Eco-Park)",
    "countryCode": "CN",
    "subnational1Code": "CN-32",
    "lat": 31.340694,
    "lng": 120.7731657,
    "latestObsDt": "2025-02-02 12:49",
    "numSpeciesAllTime": 78
  },
  "东洛岛 (Dongluo Island)": {
    "locId": "L39793875",
    "locName": "东洛岛 (Dongluo Island)",
    "countryCode": "CN",
    "subnational1Code": "CN-35",
    "lat": 25.7607445,
    "lng": 119.6754618
  },
  "东洞庭湖国家级自然保护区 (East Dongting Lake NNR)": {
    "locId": "L8325760",
    "locName": "东洞庭湖国家级自然保护区 (East Dongting Lake NNR)",
    "countryCode": "CN",
    "subnational1Code": "CN-43",
    "lat": 29.2673809,
    "lng": 112.9822527,
    "latestObsDt": "2025-01-02 14:00",
    "numSpeciesAllTime": 203
  },
  "东浦农场 (Dongpu Farm)": {
    "locId": "L10971258",
    "locName": "东浦农场 (Dongpu Farm)",
    "countryCode": "CN",
    "subnational1Code": "CN-33",
    "lat": 28.3222089,
    "lng": 121.536188,
    "latestObsDt": "2025-01-29 08:59",
    "numSpeciesAllTime": 210
  },
  "东海岸公园 (East Coast Park)": {
    "locId": "L28532242",
    "locName": "东海岸公园 (East Coast Park)",
    "countryCode": "CN",
    "subnational1Code": "CN-44",
    "lat": 23.3238664,
    "lng": 116.7800556,
    "latestObsDt": "2025-02-02 16:24",
    "numSpeciesAllTime": 7
  },
  "东涌红树林湿地园 (Dongyong Mangrove Wetlands)": {
    "locId": "L40083943",
    "locName": "东涌红树林湿地园 (Dongyong Mangrove Wetlands)",
    "countryCode": "CN",
    "subnational1Code": "CN-44",
    "lat": 22.4917895,
    "lng": 114.574964
  },
  "东淠河霍山段 (Dongpi Section - Huoshan Section)": {
    "locId": "L12928572",
    "locName": "东淠河霍山段 (Dongpi Section - Huoshan Section)",
    "countryCode": "CN",
    "subnational1Code": "CN-34",
    "lat": 31.4220183,
    "lng": 116.2813652,
    "latestObsDt": "2024-11-21 07:30",
    "numSpeciesAllTime": 106
  },
  "东港湖 (Donggang Lake)": {
    "locId": "L39575560",
    "locName": "东港湖 (Donggang Lake)",
    "countryCode": "CN",
    "subnational1Code": "CN-42",
    "lat": 29.6831515,
    "lng": 113.5939772
  },
  "东湖公园 (Donghu Park)": {
    "locId": "L17616196",
    "locName": "东湖公园 (Donghu Park)",
    "countryCode": "CN",
    "subnational1Code": "CN-51",
    "lat": 30.6195218,
    "lng": 104.0879488,
    "latestObsDt": "2025-02-12 14:18",
    "numSpeciesAllTime": 61
  },
  "东湖公园 (Donghu Park, Panjin)": {
    "locId": "L3574326",
    "locName": "东湖公园 (Donghu Park, Panjin)",
    "countryCode": "CN",
    "subnational1Code": "CN-21",
    "lat": 40.9940838,
    "lng": 122.0805717,
    "latestObsDt": "2022-08-16 08:45",
    "numSpeciesAllTime": 40
  },
  "东湖公园 (Donghu Park, Pinghu)": {
    "locId": "L13734651",
    "locName": "东湖公园 (Donghu Park, Pinghu)",
    "countryCode": "CN",
    "subnational1Code": "CN-33",
    "lat": 30.698238,
    "lng": 121.0271989,
    "latestObsDt": "2024-06-26 00:00",
    "numSpeciesAllTime": 15
  },
  "东湖听涛景区 (East Lake Tingtao Scenic Area)": {
    "locId": "L39722778",
    "locName": "东湖听涛景区 (East Lake Tingtao Scenic Area)",
    "countryCode": "CN",
    "subnational1Code": "CN-42",
    "lat": 30.5640865,
    "lng": 114.3736377,
    "latestObsDt": "2025-01-30 14:23",
    "numSpeciesAllTime": 18
  },
  "东湖大门山公园 (Donghu Damenshan Park)": {
    "locId": "L39654577",
    "locName": "东湖大门山公园 (Donghu Damenshan Park)",
    "countryCode": "CN",
    "subnational1Code": "CN-35",
    "lat": 26.6561164,
    "lng": 119.5605188,
    "latestObsDt": "2025-02-03 12:54",
    "numSpeciesAllTime": 24
  },
  "东湖山公园 (Donghushan Park)": {
    "locId": "L38175385",
    "locName": "东湖山公园 (Donghushan Park)",
    "countryCode": "CN",
    "subnational1Code": "CN-51",
    "lat": 31.1352991,
    "lng": 104.4268577
  },
  "东湖梅园 (East Lake Plum Garden)": {
    "locId": "L39719784",
    "locName": "东湖梅园 (East Lake Plum Garden)",
    "countryCode": "CN",
    "subnational1Code": "CN-42",
    "lat": 30.5425949,
    "lng": 114.4012555
  },
  "东湖绿道 (East Lake Greenway)": {
    "locId": "L17973998",
    "locName": "东湖绿道 (East Lake Greenway)",
    "countryCode": "CN",
    "subnational1Code": "CN-42",
    "lat": 30.5688981,
    "lng": 114.3937615,
    "latestObsDt": "2025-02-06 14:15",
    "numSpeciesAllTime": 114
  },
  "东湖落雁景区 (East Lake Luoyan Scenic Area)": {
    "locId": "L21662706",
    "locName": "东湖落雁景区 (East Lake Luoyan Scenic Area)",
    "countryCode": "CN",
    "subnational1Code": "CN-42",
    "lat": 30.5599719,
    "lng": 114.4298545,
    "latestObsDt": "2025-02-11 14:00",
    "numSpeciesAllTime": 47
  },
  "东湖银河桥 (East Lake Yinhe Bridge)": {
    "locId": "L39722753",
    "locName": "东湖银河桥 (East Lake Yinhe Bridge)",
    "countryCode": "CN",
    "subnational1Code": "CN-42",
    "lat": 30.5895191,
    "lng": 114.4106732
  },
  "东滩湿地公园 (Dongtan Wetland Park)": {
    "locId": "L16861983",
    "locName": "东滩湿地公园 (Dongtan Wetland Park)",
    "countryCode": "CN",
    "subnational1Code": "CN-31",
    "lat": 31.517616,
    "lng": 121.9393413,
    "latestObsDt": "2025-01-30 13:56",
    "numSpeciesAllTime": 196
  },
  "东澳岛--庙湾 (Dong'ao Island--Miaowan)": {
    "locId": "L32953432",
    "locName": "东澳岛--庙湾 (Dong'ao Island--Miaowan)",
    "countryCode": "CN",
    "subnational1Code": "CN-44",
    "lat": 22.023809,
    "lng": 113.718347,
    "latestObsDt": "2024-06-07 13:55",
    "numSpeciesAllTime": 7
  },
  "东疆亲水公园 (Dongjiang Qinshui Park)": {
    "locId": "L22346379",
    "locName": "东疆亲水公园 (Dongjiang Qinshui Park)",
    "countryCode": "CN",
    "subnational1Code": "CN-12",
    "lat": 39.0357758,
    "lng": 117.8109874,
    "latestObsDt": "2025-02-14 15:53",
    "numSpeciesAllTime": 34
  },
  "东白杨沟 (East Aspen Valley)": {
    "locId": "L35419779",
    "locName": "东白杨沟 (East Aspen Valley)",
    "countryCode": "CN",
    "subnational1Code": "CN-65",
    "lat": 43.4114966,
    "lng": 87.2744361,
    "latestObsDt": "2023-06-04 10:00",
    "numSpeciesAllTime": 41
  },
  "东福山岛 (Dongfushan Island)": {
    "locId": "L37824693",
    "locName": "东福山岛 (Dongfushan Island)",
    "countryCode": "CN",
    "subnational1Code": "CN-33",
    "lat": 30.1321858,
    "lng": 122.7705018
  },
  "东红海子 (East Honghaizi Lake)": {
    "locId": "L38019282",
    "locName": "东红海子 (East Honghaizi Lake)",
    "countryCode": "CN",
    "subnational1Code": "CN-15",
    "lat": 39.557822,
    "lng": 109.8110442
  },
  "东胜公园 (Dongsheng Park)": {
    "locId": "L38019331",
    "locName": "东胜公园 (Dongsheng Park)",
    "countryCode": "CN",
    "subnational1Code": "CN-15",
    "lat": 39.8154218,
    "lng": 109.9622013
  },
  "东莞下沙湿地公园 (Dongguan Xiasha Wetland Park)": {
    "locId": "L23743598",
    "locName": "东莞下沙湿地公园 (Dongguan Xiasha Wetland Park)",
    "countryCode": "CN",
    "subnational1Code": "CN-44",
    "lat": 23.0520606,
    "lng": 113.9752538,
    "latestObsDt": "2023-11-18 07:30",
    "numSpeciesAllTime": 28
  },
  "东莞人民公园 (People's Park, Dongguan)": {
    "locId": "L39980357",
    "locName": "东莞人民公园 (People's Park, Dongguan)",
    "countryCode": "CN",
    "subnational1Code": "CN-44",
    "lat": 23.0396532,
    "lng": 113.7594581
  },
  "东莞植物园 (Dongguan Botanical Garden)": {
    "locId": "L39980365",
    "locName": "东莞植物园 (Dongguan Botanical Garden)",
    "countryCode": "CN",
    "subnational1Code": "CN-44",
    "lat": 22.967013,
    "lng": 113.7473886
  },
  "东营园博园 (Dongying Garden Expo Park)": {
    "locId": "L39460029",
    "locName": "东营园博园 (Dongying Garden Expo Park)",
    "countryCode": "CN",
    "subnational1Code": "CN-37",
    "lat": 37.5018622,
    "lng": 118.6830633
  },
  "东营森林乐园 (Dongying Forest Amusement Park)": {
    "locId": "L39459937",
    "locName": "东营森林乐园 (Dongying Forest Amusement Park)",
    "countryCode": "CN",
    "subnational1Code": "CN-37",
    "lat": 37.4226743,
    "lng": 118.5509519
  },
  "东营植物园 (Dongying Botanical Garden)": {
    "locId": "L39459926",
    "locName": "东营植物园 (Dongying Botanical Garden)",
    "countryCode": "CN",
    "subnational1Code": "CN-37",
    "lat": 37.4184989,
    "lng": 118.6238889
  },
  "东藕塘 (East Lotus Pond)": {
    "locId": "L15161283",
    "locName": "东藕塘 (East Lotus Pond)",
    "countryCode": "CN",
    "subnational1Code": "CN-33",
    "lat": 29.1227136,
    "lng": 119.721771,
    "latestObsDt": "2024-05-25 14:24",
    "numSpeciesAllTime": 21
  },
  "东西华林街大草坪 (W & E Hualin St. Lawn and Reeds)": {
    "locId": "L26971889",
    "locName": "东西华林街大草坪 (W & E Hualin St. Lawn and Reeds)",
    "countryCode": "CN",
    "subnational1Code": "CN-32",
    "lat": 31.2867437,
    "lng": 120.7163773,
    "latestObsDt": "2024-07-29 09:45",
    "numSpeciesAllTime": 48
  },
  "东西阳城 (Dong-Xi Yangcheng)": {
    "locId": "L15329046",
    "locName": "东西阳城 (Dong-Xi Yangcheng)",
    "countryCode": "CN",
    "subnational1Code": "CN-14",
    "lat": 36.6742,
    "lng": 112.3559,
    "latestObsDt": "2024-10-05 11:30",
    "numSpeciesAllTime": 58
  },
  "东郊宾馆 (Dongjiao State Guest Hotel)": {
    "locId": "L39092904",
    "locName": "东郊宾馆 (Dongjiao State Guest Hotel)",
    "countryCode": "CN",
    "subnational1Code": "CN-31",
    "lat": 31.223131,
    "lng": 121.595476,
    "latestObsDt": "2025-01-02 16:03",
    "numSpeciesAllTime": 21
  },
  "东郊森林公园北区 (Dongjiao Forest Park North)": {
    "locId": "L38450892",
    "locName": "东郊森林公园北区 (Dongjiao Forest Park North)",
    "countryCode": "CN",
    "subnational1Code": "CN-11",
    "lat": 39.9936548,
    "lng": 116.667315,
    "latestObsDt": "2025-01-06 12:31",
    "numSpeciesAllTime": 4
  },
  "东郊森林公园南区 (Dongjiao Forest Park South)": {
    "locId": "L38450896",
    "locName": "东郊森林公园南区 (Dongjiao Forest Park South)",
    "countryCode": "CN",
    "subnational1Code": "CN-11",
    "lat": 39.9799275,
    "lng": 116.6667412
  },
  "东郊湿地公园 (Dongjiao Wetland Park)": {
    "locId": "L6297340",
    "locName": "东郊湿地公园 (Dongjiao Wetland Park)",
    "countryCode": "CN",
    "subnational1Code": "CN-11",
    "lat": 40.0202267,
    "lng": 116.6476135,
    "latestObsDt": "2024-08-13 09:15",
    "numSpeciesAllTime": 133
  },
  "东部新城生态走廊 (Eastern New City Ecological Corridor)": {
    "locId": "L28231912",
    "locName": "东部新城生态走廊 (Eastern New City Ecological Corridor)",
    "countryCode": "CN",
    "subnational1Code": "CN-33",
    "lat": 29.8482252,
    "lng": 121.6199921,
    "latestObsDt": "2024-11-15 00:00",
    "numSpeciesAllTime": 2
  },
  "东里盐场滩涂 (Dongli Mudflats)": {
    "locId": "L4208687",
    "locName": "东里盐场滩涂 (Dongli Mudflats)",
    "countryCode": "CN",
    "subnational1Code": "CN-44",
    "lat": 20.8359515,
    "lng": 110.3328609,
    "latestObsDt": "2025-01-08 16:08",
    "numSpeciesAllTime": 161
  },
  "东鉴湖湿地公园 (East Jianhu Wetland Park)": {
    "locId": "L28452891",
    "locName": "东鉴湖湿地公园 (East Jianhu Wetland Park)",
    "countryCode": "CN",
    "subnational1Code": "CN-33",
    "lat": 30.0024982,
    "lng": 120.7307786,
    "latestObsDt": "2025-02-03 08:05",
    "numSpeciesAllTime": 64
  },
  "东钱湖 (Dongqian Lake)": {
    "locId": "L9025466",
    "locName": "东钱湖 (Dongqian Lake)",
    "countryCode": "CN",
    "subnational1Code": "CN-33",
    "lat": 29.7784284,
    "lng": 121.6419841,
    "latestObsDt": "2025-02-02 11:41",
    "numSpeciesAllTime": 175
  },
  "东钱湖生态龙虾园 (Dongqian Lake Crayfish Farm)": {
    "locId": "L22401473",
    "locName": "东钱湖生态龙虾园 (Dongqian Lake Crayfish Farm)",
    "countryCode": "CN",
    "subnational1Code": "CN-33",
    "lat": 29.7939284,
    "lng": 121.6855945,
    "latestObsDt": "2025-02-04 00:00",
    "numSpeciesAllTime": 37
  },
  "东阁华侨农场 (Dongge Farm)": {
    "locId": "L22296722",
    "locName": "东阁华侨农场 (Dongge Farm)",
    "countryCode": "CN",
    "subnational1Code": "CN-35",
    "lat": 25.6578133,
    "lng": 119.450655,
    "latestObsDt": "2023-09-02 07:00",
    "numSpeciesAllTime": 31
  },
  "东阳--南江水库 (Dongyang--Nanjiang Reservoir)": {
    "locId": "L28845287",
    "locName": "东阳--南江水库 (Dongyang--Nanjiang Reservoir)",
    "countryCode": "CN",
    "subnational1Code": "CN-33",
    "lat": 29.1189521,
    "lng": 120.443173,
    "latestObsDt": "2024-01-06 00:00",
    "numSpeciesAllTime": 1
  },
  "东陵公园 (Dongling Park)": {
    "locId": "L1873898",
    "locName": "东陵公园 (Dongling Park)",
    "countryCode": "CN",
    "subnational1Code": "CN-21",
    "lat": 41.8388527,
    "lng": 123.5904122,
    "latestObsDt": "2025-02-03 10:15",
    "numSpeciesAllTime": 114
  },
  "东风水库 (Dongfeng Reservoir)": {
    "locId": "L38018479",
    "locName": "东风水库 (Dongfeng Reservoir)",
    "countryCode": "CN",
    "subnational1Code": "CN-15",
    "lat": 40.9348739,
    "lng": 100.1291012
  },
  "东风西沙水库 (Dongfeng Xisha Reservoir)": {
    "locId": "L22969021",
    "locName": "东风西沙水库 (Dongfeng Xisha Reservoir)",
    "countryCode": "CN",
    "subnational1Code": "CN-31",
    "lat": 31.7061759,
    "lng": 121.2581152,
    "latestObsDt": "2024-12-18 13:29",
    "numSpeciesAllTime": 144
  },
  "丝山 (Sishan)": {
    "locId": "L26400544",
    "locName": "丝山 (Sishan)",
    "countryCode": "CN",
    "subnational1Code": "CN-37",
    "lat": 35.4967166,
    "lng": 119.5530096,
    "latestObsDt": "2023-10-21 09:00",
    "numSpeciesAllTime": 24
  },
  "两城河口湿地 (Liangcheng Estuary Wetlands)": {
    "locId": "L13760577",
    "locName": "两城河口湿地 (Liangcheng Estuary Wetlands)",
    "countryCode": "CN",
    "subnational1Code": "CN-37",
    "lat": 35.5620963,
    "lng": 119.6444377,
    "latestObsDt": "2025-02-17 12:05",
    "numSpeciesAllTime": 139
  },
  "两寺渡公园 (Liangsidu Park)": {
    "locId": "L38297545",
    "locName": "两寺渡公园 (Liangsidu Park)",
    "countryCode": "CN",
    "subnational1Code": "CN-61",
    "lat": 34.296833,
    "lng": 108.6671449
  },
  "两山公园 (Liangshan Park)": {
    "locId": "L38199082",
    "locName": "两山公园 (Liangshan Park)",
    "countryCode": "CN",
    "subnational1Code": "CN-11",
    "lat": 39.9916746,
    "lng": 116.2564776,
    "latestObsDt": "2025-01-17 08:10",
    "numSpeciesAllTime": 31
  },
  "两河口村 (Lianghekou)": {
    "locId": "L38182799",
    "locName": "两河口村 (Lianghekou)",
    "countryCode": "CN",
    "subnational1Code": "CN-51",
    "lat": 30.4933504,
    "lng": 102.2983225
  },
  "两河口湿地公园 (Lianghekou Wetland Park)": {
    "locId": "L38672406",
    "locName": "两河口湿地公园 (Lianghekou Wetland Park)",
    "countryCode": "CN",
    "subnational1Code": "CN-41",
    "lat": 32.0719993,
    "lng": 114.1220409
  },
  "两河城市森林公园 (Lianghe Urban Forest Park)": {
    "locId": "L38242818",
    "locName": "两河城市森林公园 (Lianghe Urban Forest Park)",
    "countryCode": "CN",
    "subnational1Code": "CN-51",
    "lat": 30.7183444,
    "lng": 103.9678987
  },
  "两湖公园 (Lianghu Park)": {
    "locId": "L19469364",
    "locName": "两湖公园 (Lianghu Park)",
    "countryCode": "CN",
    "subnational1Code": "CN-33",
    "lat": 28.4621723,
    "lng": 119.9417928,
    "latestObsDt": "2024-11-23 00:00",
    "numSpeciesAllTime": 26
  },
  "严家屋--融创海滨 (Yanjiawu--Sunac Coast)": {
    "locId": "L17892738",
    "locName": "严家屋--融创海滨 (Yanjiawu--Sunac Coast)",
    "countryCode": "CN",
    "subnational1Code": "CN-33",
    "lat": 30.54024,
    "lng": 120.9813255,
    "latestObsDt": "2025-02-15 07:08",
    "numSpeciesAllTime": 214
  },
  "严家淤岛 (Yanjiayu Island)": {
    "locId": "L22178753",
    "locName": "严家淤岛 (Yanjiayu Island)",
    "countryCode": "CN",
    "subnational1Code": "CN-33",
    "lat": 28.9547752,
    "lng": 118.8586329,
    "latestObsDt": "2024-10-07 09:48",
    "numSpeciesAllTime": 67
  },
  "中关村公园 (Zhongguancun Park)": {
    "locId": "L33410950",
    "locName": "中关村公园 (Zhongguancun Park)",
    "countryCode": "CN",
    "subnational1Code": "CN-11",
    "lat": 40.0609289,
    "lng": 116.2824173,
    "latestObsDt": "2024-06-15 06:30",
    "numSpeciesAllTime": 1
  },
  "中关村软件园 (Zhongguancun Software Park)": {
    "locId": "L8095787",
    "locName": "中关村软件园 (Zhongguancun Software Park)",
    "countryCode": "CN",
    "subnational1Code": "CN-11",
    "lat": 40.0482011,
    "lng": 116.2939019,
    "latestObsDt": "2025-01-23 11:15",
    "numSpeciesAllTime": 59
  },
  "中华山森林公园 (Zhonghuashan Forest Park)": {
    "locId": "L39573322",
    "locName": "中华山森林公园 (Zhonghuashan Forest Park)",
    "countryCode": "CN",
    "subnational1Code": "CN-42",
    "lat": 31.6844107,
    "lng": 113.9477434
  },
  "中华麋鹿园 (Chinese Milu Park)": {
    "locId": "L19434988",
    "locName": "中华麋鹿园 (Chinese Milu Park)",
    "countryCode": "CN",
    "subnational1Code": "CN-32",
    "lat": 32.9855182,
    "lng": 120.8123379,
    "latestObsDt": "2024-10-06 14:36",
    "numSpeciesAllTime": 46
  },
  "中南大学 (Central South University)": {
    "locId": "L38537558",
    "locName": "中南大学 (Central South University)",
    "countryCode": "CN",
    "subnational1Code": "CN-43",
    "lat": 28.1699933,
    "lng": 112.9285549
  },
  "中南林业科技大学东区 (Central South University of Forestry and Technology - East Campus)": {
    "locId": "L38537423",
    "locName": "中南林业科技大学东区 (Central South University of Forestry and Technology - East Campus)",
    "countryCode": "CN",
    "subnational1Code": "CN-43",
    "lat": 28.1328482,
    "lng": 112.9976996,
    "latestObsDt": "2024-11-06 12:33",
    "numSpeciesAllTime": 28
  },
  "中南林业科技大学西区 (Central South University of Forestry and Technology - West Campus)": {
    "locId": "L38537434",
    "locName": "中南林业科技大学西区 (Central South University of Forestry and Technology - West Campus)",
    "countryCode": "CN",
    "subnational1Code": "CN-43",
    "lat": 28.1300378,
    "lng": 112.9914054
  },
  "中南财经政法大学 (Zhongnan University of Economics and Law)": {
    "locId": "L39723440",
    "locName": "中南财经政法大学 (Zhongnan University of Economics and Law)",
    "countryCode": "CN",
    "subnational1Code": "CN-42",
    "lat": 30.4754589,
    "lng": 114.3857048
  },
  "中卫香山公园 (Xiangshan Park, Zhongwei)": {
    "locId": "L38059391",
    "locName": "中卫香山公园 (Xiangshan Park, Zhongwei)",
    "countryCode": "CN",
    "subnational1Code": "CN-64",
    "lat": 37.4902821,
    "lng": 105.1968245
  },
  "中和寺 (Zhonghe Temple)": {
    "locId": "L4957340",
    "locName": "中和寺 (Zhonghe Temple)",
    "countryCode": "CN",
    "subnational1Code": "CN-53",
    "lat": 25.6865275,
    "lng": 100.1308058,
    "latestObsDt": "2025-02-02 09:17",
    "numSpeciesAllTime": 173
  },
  "中和湿地公园 (Zhonghe Wetland Park)": {
    "locId": "L38243342",
    "locName": "中和湿地公园 (Zhonghe Wetland Park)",
    "countryCode": "CN",
    "subnational1Code": "CN-51",
    "lat": 30.5666877,
    "lng": 104.0978623
  },
  "中国人民大学 (Renmin University of China)": {
    "locId": "L23509248",
    "locName": "中国人民大学 (Renmin University of China)",
    "countryCode": "CN",
    "subnational1Code": "CN-11",
    "lat": 39.9708011,
    "lng": 116.3132385,
    "latestObsDt": "2024-12-04 19:04",
    "numSpeciesAllTime": 30
  },
  "中国农业大学西校区 (China Agricultural University - West Campus)": {
    "locId": "L7517082",
    "locName": "中国农业大学西校区 (China Agricultural University - West Campus)",
    "countryCode": "CN",
    "subnational1Code": "CN-11",
    "lat": 40.02676,
    "lng": 116.2816143,
    "latestObsDt": "2024-04-15 00:00",
    "numSpeciesAllTime": 43
  },
  "中国常熟世界联合学院 (United World College Changshu China)": {
    "locId": "L16180439",
    "locName": "中国常熟世界联合学院 (United World College Changshu China)",
    "countryCode": "CN",
    "subnational1Code": "CN-32",
    "lat": 31.6062026,
    "lng": 120.7367693,
    "latestObsDt": "2025-02-17 11:35",
    "numSpeciesAllTime": 100
  },
  "中国最北点 (Northernmost Point of China)": {
    "locId": "L22434635",
    "locName": "中国最北点 (Northernmost Point of China)",
    "countryCode": "CN",
    "subnational1Code": "CN-23",
    "lat": 53.5582085,
    "lng": 123.2675114,
    "latestObsDt": "2013-06-29 12:54",
    "numSpeciesAllTime": 1
  },
  "中国石油大学克拉玛依校区 (China University of Petroleum at Karamay)": {
    "locId": "L9851797",
    "locName": "中国石油大学克拉玛依校区 (China University of Petroleum at Karamay)",
    "countryCode": "CN",
    "subnational1Code": "CN-65",
    "lat": 45.5506805,
    "lng": 84.936777,
    "latestObsDt": "2025-01-06 14:16",
    "numSpeciesAllTime": 116
  },
  "中国科学技术大学 (University of Science and Technology of China)": {
    "locId": "L16403114",
    "locName": "中国科学技术大学 (University of Science and Technology of China)",
    "countryCode": "CN",
    "subnational1Code": "CN-34",
    "lat": 31.8395291,
    "lng": 117.2689881,
    "latestObsDt": "2024-11-30 08:00",
    "numSpeciesAllTime": 91
  },
  "中国科学技术大学西校区 (USTC - West Campus)": {
    "locId": "L38671523",
    "locName": "中国科学技术大学西校区 (USTC - West Campus)",
    "countryCode": "CN",
    "subnational1Code": "CN-34",
    "lat": 31.838922,
    "lng": 117.2559355
  },
  "中国科学院大学 (University of Chinese Academy of Sciences)": {
    "locId": "L5817879",
    "locName": "中国科学院大学 (University of Chinese Academy of Sciences)",
    "countryCode": "CN",
    "subnational1Code": "CN-11",
    "lat": 40.4059413,
    "lng": 116.680749,
    "latestObsDt": "2025-01-13 15:51",
    "numSpeciesAllTime": 153
  },
  "中国科学院大学玉泉路校区 (University of Chinese Academy of Sciences - Yuquan Rd Campus)": {
    "locId": "L36330129",
    "locName": "中国科学院大学玉泉路校区 (University of Chinese Academy of Sciences - Yuquan Rd Campus)",
    "countryCode": "CN",
    "subnational1Code": "CN-11",
    "lat": 39.9120785,
    "lng": 116.2513194,
    "latestObsDt": "2024-12-12 11:53",
    "numSpeciesAllTime": 20
  },
  "中国科学院武汉植物园 (Wuhan Botanical Garden CAS)": {
    "locId": "L4919951",
    "locName": "中国科学院武汉植物园 (Wuhan Botanical Garden CAS)",
    "countryCode": "CN",
    "subnational1Code": "CN-42",
    "lat": 30.545951,
    "lng": 114.4183478,
    "latestObsDt": "2025-01-19 10:54",
    "numSpeciesAllTime": 114
  },
  "中国美院象山中心校区 (China Academy of Art - Xiangshan Campus)": {
    "locId": "L5282984",
    "locName": "中国美院象山中心校区 (China Academy of Art - Xiangshan Campus)",
    "countryCode": "CN",
    "subnational1Code": "CN-33",
    "lat": 30.153717,
    "lng": 120.078467,
    "latestObsDt": "2019-06-01 09:00",
    "numSpeciesAllTime": 63
  },
  "中国茶海景区 (China Chahai Scenic Area)": {
    "locId": "L14011047",
    "locName": "中国茶海景区 (China Chahai Scenic Area)",
    "countryCode": "CN",
    "subnational1Code": "CN-52",
    "lat": 27.8847706,
    "lng": 107.6257181,
    "latestObsDt": "2017-08-07 09:00",
    "numSpeciesAllTime": 11
  },
  "中国药科大学江宁校区 (China Pharmaceutical University - Jiangning Campus)": {
    "locId": "L29767506",
    "locName": "中国药科大学江宁校区 (China Pharmaceutical University - Jiangning Campus)",
    "countryCode": "CN",
    "subnational1Code": "CN-32",
    "lat": 31.902363,
    "lng": 118.9170327,
    "latestObsDt": "2024-11-30 19:00",
    "numSpeciesAllTime": 71
  },
  "中国金钱松森林公园 (Golden Larch Forest Park)": {
    "locId": "L14722474",
    "locName": "中国金钱松森林公园 (Golden Larch Forest Park)",
    "countryCode": "CN",
    "subnational1Code": "CN-33",
    "lat": 30.4185982,
    "lng": 119.6392667,
    "latestObsDt": "2021-06-07 00:00",
    "numSpeciesAllTime": 11
  },
  "中坞公园 (Zhongwu Park)": {
    "locId": "L38199052",
    "locName": "中坞公园 (Zhongwu Park)",
    "countryCode": "CN",
    "subnational1Code": "CN-11",
    "lat": 39.9809313,
    "lng": 116.2609476
  },
  "中坡国家森林公园 (Zhongpo National Forest Park)": {
    "locId": "L13556506",
    "locName": "中坡国家森林公园 (Zhongpo National Forest Park)",
    "countryCode": "CN",
    "subnational1Code": "CN-43",
    "lat": 27.5764882,
    "lng": 109.9491839,
    "latestObsDt": "2021-02-11 10:50",
    "numSpeciesAllTime": 13
  },
  "中央山公园 (Zhongyangshan Park)": {
    "locId": "L22442442",
    "locName": "中央山公园 (Zhongyangshan Park)",
    "countryCode": "CN",
    "subnational1Code": "CN-33",
    "lat": 28.5793112,
    "lng": 121.345991,
    "latestObsDt": "2023-02-02 00:00",
    "numSpeciesAllTime": 2
  },
  "中山公园 (Zhongshan Park)": {
    "locId": "L5245850",
    "locName": "中山公园 (Zhongshan Park)",
    "countryCode": "CN",
    "subnational1Code": "CN-31",
    "lat": 31.221888,
    "lng": 121.420066,
    "latestObsDt": "2025-02-15 07:20",
    "numSpeciesAllTime": 78
  },
  "中山大学 (Sun Yat-sen University)": {
    "locId": "L2354294",
    "locName": "中山大学 (Sun Yat-sen University)",
    "countryCode": "CN",
    "subnational1Code": "CN-44",
    "lat": 23.0963458,
    "lng": 113.2985741,
    "latestObsDt": "2025-01-16 12:04",
    "numSpeciesAllTime": 175
  },
  "中山大学东校区 (Sun Yat-sen University - East Campus)": {
    "locId": "L40088571",
    "locName": "中山大学东校区 (Sun Yat-sen University - East Campus)",
    "countryCode": "CN",
    "subnational1Code": "CN-44",
    "lat": 23.0671479,
    "lng": 113.3899523
  },
  "中山大学深圳校区 (Sun Yat-sen University - Shenzhen Campus)": {
    "locId": "L30114695",
    "locName": "中山大学深圳校区 (Sun Yat-sen University - Shenzhen Campus)",
    "countryCode": "CN",
    "subnational1Code": "CN-44",
    "lat": 22.8039589,
    "lng": 113.9495112,
    "latestObsDt": "2025-02-15 22:30",
    "numSpeciesAllTime": 77
  },
  "中山大学深圳校区二期 (Sun Yat-sen University - Shenzhen Campus Area II [research farm])": {
    "locId": "L38652861",
    "locName": "中山大学深圳校区二期 (Sun Yat-sen University - Shenzhen Campus Area II [research farm])",
    "countryCode": "CN",
    "subnational1Code": "CN-44",
    "lat": 22.8069942,
    "lng": 113.9514284,
    "latestObsDt": "2024-12-17 09:00",
    "numSpeciesAllTime": 52
  },
  "中山大学珠海校园 (Sun Yat-sen University - Zhuhai Campus)": {
    "locId": "L7070556",
    "locName": "中山大学珠海校园 (Sun Yat-sen University - Zhuhai Campus)",
    "countryCode": "CN",
    "subnational1Code": "CN-44",
    "lat": 22.3413037,
    "lng": 113.5897708,
    "latestObsDt": "2023-12-06 14:35",
    "numSpeciesAllTime": 84
  },
  "中山市树木园 (Zhongshan Arboretum)": {
    "locId": "L6012179",
    "locName": "中山市树木园 (Zhongshan Arboretum)",
    "countryCode": "CN",
    "subnational1Code": "CN-44",
    "lat": 22.4869662,
    "lng": 113.3725789,
    "latestObsDt": "2024-07-16 09:26",
    "numSpeciesAllTime": 41
  },
  "中山纪念堂 (Dr. Sun Yat-Sen's Memorial Hall)": {
    "locId": "L20493095",
    "locName": "中山纪念堂 (Dr. Sun Yat-Sen's Memorial Hall)",
    "countryCode": "CN",
    "subnational1Code": "CN-44",
    "lat": 23.1320541,
    "lng": 113.2644107,
    "latestObsDt": "2024-07-02 17:28",
    "numSpeciesAllTime": 17
  },
  "中山陵 (Dr. Sun Yat-sen's Mausoleum)": {
    "locId": "L37874977",
    "locName": "中山陵 (Dr. Sun Yat-sen's Mausoleum)",
    "countryCode": "CN",
    "subnational1Code": "CN-32",
    "lat": 32.0599287,
    "lng": 118.8535702,
    "latestObsDt": "2024-12-23 12:15",
    "numSpeciesAllTime": 35
  },
  "中山陵苗圃场 (Dr. Sun Yat-sen's Mausoleum--The Nursery)": {
    "locId": "L39865076",
    "locName": "中山陵苗圃场 (Dr. Sun Yat-sen's Mausoleum--The Nursery)",
    "countryCode": "CN",
    "subnational1Code": "CN-32",
    "lat": 32.0505884,
    "lng": 118.8735673,
    "latestObsDt": "2024-12-28 08:00",
    "numSpeciesAllTime": 22
  },
  "中心公园 (Central Park, Tianjin)": {
    "locId": "L29886042",
    "locName": "中心公园 (Central Park, Tianjin)",
    "countryCode": "CN",
    "subnational1Code": "CN-12",
    "lat": 39.1234887,
    "lng": 117.1986165,
    "latestObsDt": "2024-03-16 13:16",
    "numSpeciesAllTime": 7
  },
  "中房洲 (Zhongfang Shoal)": {
    "locId": "L28756563",
    "locName": "中房洲 (Zhongfang Shoal)",
    "countryCode": "CN",
    "subnational1Code": "CN-35",
    "lat": 26.110555,
    "lng": 119.200448,
    "latestObsDt": "2024-01-13 12:39",
    "numSpeciesAllTime": 36
  },
  "中新天津生态城 (Sino-Singapore Tianjin Eco-City)": {
    "locId": "L32490259",
    "locName": "中新天津生态城 (Sino-Singapore Tianjin Eco-City)",
    "countryCode": "CN",
    "subnational1Code": "CN-12",
    "lat": 39.1211061,
    "lng": 117.7513269,
    "latestObsDt": "2024-02-02 10:20",
    "numSpeciesAllTime": 81
  },
  "中洲公园 (Zhongzhou Park)": {
    "locId": "L19181936",
    "locName": "中洲公园 (Zhongzhou Park)",
    "countryCode": "CN",
    "subnational1Code": "CN-33",
    "lat": 29.2051377,
    "lng": 119.4636137,
    "latestObsDt": "2024-12-14 00:00",
    "numSpeciesAllTime": 32
  },
  "中海公园 (Zhonghai Park)": {
    "locId": "L38786402",
    "locName": "中海公园 (Zhonghai Park)",
    "countryCode": "CN",
    "subnational1Code": "CN-37",
    "lat": 37.3956925,
    "lng": 117.9512309,
    "latestObsDt": "2025-02-12 14:00",
    "numSpeciesAllTime": 60
  },
  "中溪村 (Zhongxi Village)": {
    "locId": "L24024938",
    "locName": "中溪村 (Zhongxi Village)",
    "countryCode": "CN",
    "subnational1Code": "CN-35",
    "lat": 26.4934718,
    "lng": 116.9846058,
    "latestObsDt": "2025-02-12 09:13",
    "numSpeciesAllTime": 97
  },
  "中澳友谊花园 (Sino-Australian Friendship Garden)": {
    "locId": "L39980910",
    "locName": "中澳友谊花园 (Sino-Australian Friendship Garden)",
    "countryCode": "CN",
    "subnational1Code": "CN-44",
    "lat": 21.2440219,
    "lng": 110.4092317
  },
  "中牟雁鸣湖 (Yanming Lake, Zhongmu)": {
    "locId": "L4258254",
    "locName": "中牟雁鸣湖 (Yanming Lake, Zhongmu)",
    "countryCode": "CN",
    "subnational1Code": "CN-41",
    "lat": 34.8725527,
    "lng": 114.0396738,
    "latestObsDt": "2024-08-18 12:42",
    "numSpeciesAllTime": 91
  },
  "中牟黄河滩 (Zhongmu Yellow River Flats)": {
    "locId": "L9932275",
    "locName": "中牟黄河滩 (Zhongmu Yellow River Flats)",
    "countryCode": "CN",
    "subnational1Code": "CN-41",
    "lat": 34.943555,
    "lng": 114.0524883,
    "latestObsDt": "2023-01-01 14:39",
    "numSpeciesAllTime": 70
  },
  "中科院华南植物园 (South China Botanical Garden)": {
    "locId": "L4672350",
    "locName": "中科院华南植物园 (South China Botanical Garden)",
    "countryCode": "CN",
    "subnational1Code": "CN-44",
    "lat": 23.1822035,
    "lng": 113.3688319,
    "latestObsDt": "2025-02-08 11:16",
    "numSpeciesAllTime": 143
  },
  "中科院吐鲁番沙漠植物园 (Turpan Desert Botanical Garden)": {
    "locId": "L37988443",
    "locName": "中科院吐鲁番沙漠植物园 (Turpan Desert Botanical Garden)",
    "countryCode": "CN",
    "subnational1Code": "CN-65",
    "lat": 42.8564495,
    "lng": 89.1925721
  },
  "中科院桂林植物园 (Guangxi Institute of Botany, CAS)": {
    "locId": "L38428792",
    "locName": "中科院桂林植物园 (Guangxi Institute of Botany, CAS)",
    "countryCode": "CN",
    "subnational1Code": "CN-45",
    "lat": 25.0733636,
    "lng": 110.3029595,
    "latestObsDt": "2025-01-06 10:55",
    "numSpeciesAllTime": 7
  },
  "中科院植物研究所 (Institute of Botany, CAS)": {
    "locId": "L7049829",
    "locName": "中科院植物研究所 (Institute of Botany, CAS)",
    "countryCode": "CN",
    "subnational1Code": "CN-11",
    "lat": 39.9893644,
    "lng": 116.2157929,
    "latestObsDt": "2024-11-23 14:13",
    "numSpeciesAllTime": 68
  },
  "中科院西双版纳热带植物园 (Xishuangbanna Tropical Botanical Garden)": {
    "locId": "L2356004",
    "locName": "中科院西双版纳热带植物园 (Xishuangbanna Tropical Botanical Garden)",
    "countryCode": "CN",
    "subnational1Code": "CN-53",
    "lat": 21.9262114,
    "lng": 101.2548887,
    "latestObsDt": "2025-02-13 07:43",
    "numSpeciesAllTime": 364
  },
  "中科院西双版纳热带植物园--热带雨林景区 (Xishuangbanna Tropical Botanical Garden--Rainforest Scenic Area)": {
    "locId": "L35278086",
    "locName": "中科院西双版纳热带植物园--热带雨林景区 (Xishuangbanna Tropical Botanical Garden--Rainforest Scenic Area)",
    "countryCode": "CN",
    "subnational1Code": "CN-53",
    "lat": 21.9167456,
    "lng": 101.2717556,
    "latestObsDt": "2025-02-13 07:31",
    "numSpeciesAllTime": 125
  },
  "中科院西双版纳热带植物园--绿石林景区 (Xishuangbanna Tropical Botanical Garden--Green Stone Forest)": {
    "locId": "L4690619",
    "locName": "中科院西双版纳热带植物园--绿石林景区 (Xishuangbanna Tropical Botanical Garden--Green Stone Forest)",
    "countryCode": "CN",
    "subnational1Code": "CN-53",
    "lat": 21.9089835,
    "lng": 101.2828127,
    "latestObsDt": "2025-02-05 08:33",
    "numSpeciesAllTime": 161
  },
  "中虎跳峡 (Middle Tiger Leaping Gorge)": {
    "locId": "L38126691",
    "locName": "中虎跳峡 (Middle Tiger Leaping Gorge)",
    "countryCode": "CN",
    "subnational1Code": "CN-53",
    "lat": 27.2537069,
    "lng": 100.163346,
    "latestObsDt": "2025-02-11 14:12",
    "numSpeciesAllTime": 37
  },
  "中路藏寨 (Zhonglu Tibetan Village)": {
    "locId": "L38182267",
    "locName": "中路藏寨 (Zhonglu Tibetan Village)",
    "countryCode": "CN",
    "subnational1Code": "CN-51",
    "lat": 30.8947455,
    "lng": 101.9397359
  },
  "丰乐公园 (Fengle Park)": {
    "locId": "L39964207",
    "locName": "丰乐公园 (Fengle Park)",
    "countryCode": "CN",
    "subnational1Code": "CN-44",
    "lat": 22.6233809,
    "lng": 113.0846565
  },
  "丰塘村湿地 (Fengtang Wetlands)": {
    "locId": "L21290842",
    "locName": "丰塘村湿地 (Fengtang Wetlands)",
    "countryCode": "CN",
    "subnational1Code": "CN-46",
    "lat": 18.5341968,
    "lng": 108.710981,
    "latestObsDt": "2025-02-01 15:35",
    "numSpeciesAllTime": 116
  },
  "丰庆公园 (Fengqing Park)": {
    "locId": "L38297704",
    "locName": "丰庆公园 (Fengqing Park)",
    "countryCode": "CN",
    "subnational1Code": "CN-61",
    "lat": 34.2478212,
    "lng": 108.898502,
    "latestObsDt": "2025-01-19 17:43",
    "numSpeciesAllTime": 4
  },
  "丰收路湿地 (Fengshou Rd. Wetlands)": {
    "locId": "L17613399",
    "locName": "丰收路湿地 (Fengshou Rd. Wetlands)",
    "countryCode": "CN",
    "subnational1Code": "CN-46",
    "lat": 19.1070238,
    "lng": 108.6496034,
    "latestObsDt": "2025-02-11 11:43",
    "numSpeciesAllTime": 94
  },
  "丰翔智秀公园 (Fengxiang Zhixiu Park)": {
    "locId": "L23225019",
    "locName": "丰翔智秀公园 (Fengxiang Zhixiu Park)",
    "countryCode": "CN",
    "subnational1Code": "CN-31",
    "lat": 31.3046637,
    "lng": 121.3604879,
    "latestObsDt": "2025-02-10 12:00",
    "numSpeciesAllTime": 60
  },
  "丰都鬼城 (Fengdu City of Ghosts)": {
    "locId": "L8013765",
    "locName": "丰都鬼城 (Fengdu City of Ghosts)",
    "countryCode": "CN",
    "subnational1Code": "CN-50",
    "lat": 29.8876613,
    "lng": 107.7187462,
    "latestObsDt": "2024-05-04 08:30",
    "numSpeciesAllTime": 36
  },
  "临夏东郊公园 (Dongjiao Park, Linxia)": {
    "locId": "L38285343",
    "locName": "临夏东郊公园 (Dongjiao Park, Linxia)",
    "countryCode": "CN",
    "subnational1Code": "CN-62",
    "lat": 35.6121856,
    "lng": 103.2493381
  },
  "临山公园 (Linshan Park)": {
    "locId": "L38786486",
    "locName": "临山公园 (Linshan Park)",
    "countryCode": "CN",
    "subnational1Code": "CN-37",
    "lat": 34.7892497,
    "lng": 117.285522
  },
  "临平东湖公园 (Linping Donghu Park)": {
    "locId": "L19301029",
    "locName": "临平东湖公园 (Linping Donghu Park)",
    "countryCode": "CN",
    "subnational1Code": "CN-33",
    "lat": 30.3835649,
    "lng": 120.2936522,
    "latestObsDt": "2025-02-03 00:00",
    "numSpeciesAllTime": 39
  },
  "临平山 (Linping Mountain)": {
    "locId": "L18446215",
    "locName": "临平山 (Linping Mountain)",
    "countryCode": "CN",
    "subnational1Code": "CN-33",
    "lat": 30.4150839,
    "lng": 120.2812526,
    "latestObsDt": "2024-11-23 11:40",
    "numSpeciesAllTime": 107
  },
  "临春岭森林公园 (Linchunling Forest Park)": {
    "locId": "L17622128",
    "locName": "临春岭森林公园 (Linchunling Forest Park)",
    "countryCode": "CN",
    "subnational1Code": "CN-46",
    "lat": 18.2601164,
    "lng": 109.5259815,
    "latestObsDt": "2025-02-01 07:16",
    "numSpeciesAllTime": 58
  },
  "临汾汾河公园 (Fenhe Park, Linfen)": {
    "locId": "L38340406",
    "locName": "临汾汾河公园 (Fenhe Park, Linfen)",
    "countryCode": "CN",
    "subnational1Code": "CN-14",
    "lat": 36.0810057,
    "lng": 111.4873069
  },
  "临沂人民公园 (People's Park, Linyi)": {
    "locId": "L38842307",
    "locName": "临沂人民公园 (People's Park, Linyi)",
    "countryCode": "CN",
    "subnational1Code": "CN-37",
    "lat": 35.0566707,
    "lng": 118.35934
  },
  "临沂园博园 (Linyi Garden Expo Park)": {
    "locId": "L38842386",
    "locName": "临沂园博园 (Linyi Garden Expo Park)",
    "countryCode": "CN",
    "subnational1Code": "CN-37",
    "lat": 35.1074434,
    "lng": 118.3204192
  },
  "临河黄河湿地生态公园 (Linhe Yellow River Eco-Park)": {
    "locId": "L38019229",
    "locName": "临河黄河湿地生态公园 (Linhe Yellow River Eco-Park)",
    "countryCode": "CN",
    "subnational1Code": "CN-15",
    "lat": 40.7272072,
    "lng": 107.4011973
  },
  "临洪河口 (Linhong River Estuary)": {
    "locId": "L9802069",
    "locName": "临洪河口 (Linhong River Estuary)",
    "countryCode": "CN",
    "subnational1Code": "CN-32",
    "lat": 34.7632839,
    "lng": 119.22394,
    "latestObsDt": "2025-01-03 08:41",
    "numSpeciesAllTime": 167
  },
  "临海--白沙湖 (Linhai--Baisha Lake)": {
    "locId": "L29280808",
    "locName": "临海--白沙湖 (Linhai--Baisha Lake)",
    "countryCode": "CN",
    "subnational1Code": "CN-33",
    "lat": 28.71,
    "lng": 121.63,
    "latestObsDt": "2025-01-04 00:00",
    "numSpeciesAllTime": 56
  },
  "临海--红脚岩渔港 (Linhai--Hongjiaoyan Fishing Port)": {
    "locId": "L31826333",
    "locName": "临海--红脚岩渔港 (Linhai--Hongjiaoyan Fishing Port)",
    "countryCode": "CN",
    "subnational1Code": "CN-33",
    "lat": 28.810172,
    "lng": 121.684681,
    "latestObsDt": "2024-04-28 00:00",
    "numSpeciesAllTime": 1
  },
  "丹凤山 (Danfeng Mountain)": {
    "locId": "L27104385",
    "locName": "丹凤山 (Danfeng Mountain)",
    "countryCode": "CN",
    "subnational1Code": "CN-37",
    "lat": 35.5226881,
    "lng": 119.0368733,
    "latestObsDt": "2023-10-02 08:00",
    "numSpeciesAllTime": 25
  },
  "丹岐内塘 (Danqi Ponds)": {
    "locId": "L22642469",
    "locName": "丹岐内塘 (Danqi Ponds)",
    "countryCode": "CN",
    "subnational1Code": "CN-35",
    "lat": 27.276708,
    "lng": 120.194941,
    "latestObsDt": "2023-07-20 07:05",
    "numSpeciesAllTime": 29
  },
  "丹河人工湿地 (Dan River Manmade Wetlands)": {
    "locId": "L7977189",
    "locName": "丹河人工湿地 (Dan River Manmade Wetlands)",
    "countryCode": "CN",
    "subnational1Code": "CN-14",
    "lat": 35.5223317,
    "lng": 112.9759814,
    "latestObsDt": "2025-01-05 16:20",
    "numSpeciesAllTime": 45
  },
  "丹霞山--锦江沿岸 (Danxia Mountain--Jinjiang Riverside)": {
    "locId": "L37911597",
    "locName": "丹霞山--锦江沿岸 (Danxia Mountain--Jinjiang Riverside)",
    "countryCode": "CN",
    "subnational1Code": "CN-44",
    "lat": 25.0380829,
    "lng": 113.7446126,
    "latestObsDt": "2024-11-09 15:30",
    "numSpeciesAllTime": 14
  },
  "丹霞山--长老峰景区 (Danxia Mountain--Zhanglaofeng Scenic Area)": {
    "locId": "L37909363",
    "locName": "丹霞山--长老峰景区 (Danxia Mountain--Zhanglaofeng Scenic Area)",
    "countryCode": "CN",
    "subnational1Code": "CN-44",
    "lat": 25.0242508,
    "lng": 113.7438583,
    "latestObsDt": "2024-11-10 10:00",
    "numSpeciesAllTime": 28
  },
  "丹霞山--阳元石景区 (Danxia Mountain--Yanyuanshi Scenic Area)": {
    "locId": "L35608297",
    "locName": "丹霞山--阳元石景区 (Danxia Mountain--Yanyuanshi Scenic Area)",
    "countryCode": "CN",
    "subnational1Code": "CN-44",
    "lat": 25.045275,
    "lng": 113.7290458,
    "latestObsDt": "2024-11-10 16:00",
    "numSpeciesAllTime": 43
  },
  "丽景公园 (Lijing Park)": {
    "locId": "L38474136",
    "locName": "丽景公园 (Lijing Park)",
    "countryCode": "CN",
    "subnational1Code": "CN-43",
    "lat": 25.778208,
    "lng": 113.000289
  },
  "丽水植物园 (Lishui Botanical Garden)": {
    "locId": "L37821026",
    "locName": "丽水植物园 (Lishui Botanical Garden)",
    "countryCode": "CN",
    "subnational1Code": "CN-33",
    "lat": 28.4705158,
    "lng": 119.8917893,
    "latestObsDt": "2024-10-24 00:00",
    "numSpeciesAllTime": 1
  },
  "丽江古城 (Old Town of Lijiang)": {
    "locId": "L21369479",
    "locName": "丽江古城 (Old Town of Lijiang)",
    "countryCode": "CN",
    "subnational1Code": "CN-53",
    "lat": 26.8716248,
    "lng": 100.236433,
    "latestObsDt": "2024-11-10 13:30",
    "numSpeciesAllTime": 36
  },
  "丽江黑龙潭公园 (Heilongtan Park, Lijiang)": {
    "locId": "L8133181",
    "locName": "丽江黑龙潭公园 (Heilongtan Park, Lijiang)",
    "countryCode": "CN",
    "subnational1Code": "CN-53",
    "lat": 26.8888538,
    "lng": 100.2353034,
    "latestObsDt": "2025-02-14 10:00",
    "numSpeciesAllTime": 248
  },
  "丽波湾 (Libo Bay)": {
    "locId": "L6579602",
    "locName": "丽波湾 (Libo Bay)",
    "countryCode": "CN",
    "subnational1Code": "CN-32",
    "lat": 31.2392765,
    "lng": 120.3957144,
    "latestObsDt": "2021-09-18 15:00",
    "numSpeciesAllTime": 50
  },
  "丽都公园 (Lidu Park)": {
    "locId": "L38243554",
    "locName": "丽都公园 (Lidu Park)",
    "countryCode": "CN",
    "subnational1Code": "CN-51",
    "lat": 30.628681,
    "lng": 104.0360101
  },
  "么等上寨 (Medeng Shangzhai)": {
    "locId": "L15900242",
    "locName": "么等上寨 (Medeng Shangzhai)",
    "countryCode": "CN",
    "subnational1Code": "CN-53",
    "lat": 21.8928944,
    "lng": 101.2118199,
    "latestObsDt": "2025-01-24 13:00",
    "numSpeciesAllTime": 110
  },
  "义丰溪口 (Yifengxi Estuary)": {
    "locId": "L39819337",
    "locName": "义丰溪口 (Yifengxi Estuary)",
    "countryCode": "CN",
    "subnational1Code": "CN-44",
    "lat": 23.5443029,
    "lng": 116.8908792
  },
  "义乌机场 (Yiwu Airport)": {
    "locId": "L14067821",
    "locName": "义乌机场 (Yiwu Airport)",
    "countryCode": "CN",
    "subnational1Code": "CN-33",
    "lat": 29.3407322,
    "lng": 120.0324978,
    "latestObsDt": "2024-09-03 00:00",
    "numSpeciesAllTime": 40
  },
  "义乌植物园 (Yiwu Botanical Garden)": {
    "locId": "L15579246",
    "locName": "义乌植物园 (Yiwu Botanical Garden)",
    "countryCode": "CN",
    "subnational1Code": "CN-33",
    "lat": 29.3644274,
    "lng": 120.0839337,
    "latestObsDt": "2025-02-04 14:32",
    "numSpeciesAllTime": 40
  },
  "乌云河大桥 (Wuyun River Bridge)": {
    "locId": "L32520993",
    "locName": "乌云河大桥 (Wuyun River Bridge)",
    "countryCode": "CN",
    "subnational1Code": "CN-23",
    "lat": 48.973086,
    "lng": 129.96236,
    "latestObsDt": "2024-05-29 15:12",
    "numSpeciesAllTime": 16
  },
  "乌伦古湖--东北部 (Ulungur Lake--Northeast)": {
    "locId": "L6145192",
    "locName": "乌伦古湖--东北部 (Ulungur Lake--Northeast)",
    "countryCode": "CN",
    "subnational1Code": "CN-65",
    "lat": 47.33997,
    "lng": 87.553458,
    "latestObsDt": "2024-09-17 10:05",
    "numSpeciesAllTime": 148
  },
  "乌伦古湖--东南岸 (Ulungur Lake--Southeast)": {
    "locId": "L37994101",
    "locName": "乌伦古湖--东南岸 (Ulungur Lake--Southeast)",
    "countryCode": "CN",
    "subnational1Code": "CN-65",
    "lat": 47.0887133,
    "lng": 87.3094557
  },
  "乌伦古湖--东岸 (Ulungur Lake--East)": {
    "locId": "L25052191",
    "locName": "乌伦古湖--东岸 (Ulungur Lake--East)",
    "countryCode": "CN",
    "subnational1Code": "CN-65",
    "lat": 47.1988641,
    "lng": 87.3611904,
    "latestObsDt": "2024-10-14 14:13",
    "numSpeciesAllTime": 129
  },
  "乌伦古湖--大红盐池 (Ulungur Lake--Greater Saltpond)": {
    "locId": "L37994124",
    "locName": "乌伦古湖--大红盐池 (Ulungur Lake--Greater Saltpond)",
    "countryCode": "CN",
    "subnational1Code": "CN-65",
    "lat": 47.229273,
    "lng": 87.3922484,
    "latestObsDt": "2024-07-01 15:30",
    "numSpeciesAllTime": 37
  },
  "乌伦古湖--大红盐池口 (Ulungur Lake--Greater Saltpond Estuary)": {
    "locId": "L37993988",
    "locName": "乌伦古湖--大红盐池口 (Ulungur Lake--Greater Saltpond Estuary)",
    "countryCode": "CN",
    "subnational1Code": "CN-65",
    "lat": 47.2163076,
    "lng": 87.4561548
  },
  "乌伦古湖--黄金海岸景区 (Ulungur Lake--Golden Lakefront)": {
    "locId": "L37994060",
    "locName": "乌伦古湖--黄金海岸景区 (Ulungur Lake--Golden Lakefront)",
    "countryCode": "CN",
    "subnational1Code": "CN-65",
    "lat": 47.1451352,
    "lng": 87.3200923
  },
  "乌兰哈达火山地质公园 (Ulanhada Volcano Geo-Park)": {
    "locId": "L38024480",
    "locName": "乌兰哈达火山地质公园 (Ulanhada Volcano Geo-Park)",
    "countryCode": "CN",
    "subnational1Code": "CN-15",
    "lat": 41.5954572,
    "lng": 113.1223545
  },
  "乌兰木伦公园 (Ulaan Moron Park)": {
    "locId": "L38019309",
    "locName": "乌兰木伦公园 (Ulaan Moron Park)",
    "countryCode": "CN",
    "subnational1Code": "CN-15",
    "lat": 39.5859749,
    "lng": 109.8080354
  },
  "乌兰浩特成吉思汗公园 (Genghis Khan Park, Ulanhot)": {
    "locId": "L38018661",
    "locName": "乌兰浩特成吉思汗公园 (Genghis Khan Park, Ulanhot)",
    "countryCode": "CN",
    "subnational1Code": "CN-15",
    "lat": 46.0947921,
    "lng": 122.053608
  },
  "乌兰诺尔 (Ulaan Nur)": {
    "locId": "L10859111",
    "locName": "乌兰诺尔 (Ulaan Nur)",
    "countryCode": "CN",
    "subnational1Code": "CN-15",
    "lat": 48.362791,
    "lng": 117.5178125,
    "latestObsDt": "2023-08-02 07:52",
    "numSpeciesAllTime": 75
  },